Date,File,user_note,rodney configuration,sensor calibration (k d c),stalk array (lo med hi),sensor height (cm),sensor yaw (degrees),sensor pitch (degrees),sensor roll (degrees),rate of travel (ft/min),angle of travel (degrees),sensor offset (cm to gauge 2),positionDDT_tol,forceDDT_tol,Stalk1,Stalk2,Stalk3,Stalk4,Stalk5,Stalk6,Stalk7,Stalk8,Stalk9
07_10,Raw Data\07_10\07_10_test_101.csv,,Integrated Beam Prototype 3,-0.046833 -0.046833 -0.046016 -0.046016 : 0.009751 0.009751 0.048646 0.048646 : 0.451608 0.451608 0.359203 0.359203,lo,89.0,15.0,0.0,0.0,25.0,0.0,9.5,2.254054038176331,51.28861161062099,20.442953542243124,17.05853972805124,17.413215546577597,11.751656204520929,5.569124256375867,10.014330250756396,14.187983684782912,9.464041353144593,15.478593191587835
07_10,Raw Data\07_10\07_10_test_102.csv,,Integrated Beam Prototype 3,-0.046833 -0.046833 -0.046016 -0.046016 : 0.009751 0.009751 0.048646 0.048646 : 0.451608 0.451608 0.359203 0.359203,lo,89.0,15.0,0.0,0.0,25.0,0.0,9.5,2.254054038176331,51.28861161062099,17.73692788846195,19.99984996572258,19.9119649972587,9.992847385050656,9.740040691884378,7.076469639009306,16.92999368437254,8.601375080516306,11.691614185710993
07_10,Raw Data\07_10\07_10_test_103.csv,,Integrated Beam Prototype 3,-0.046833 -0.046833 -0.046016 -0.046016 : 0.009751 0.009751 0.048646 0.048646 : 0.451608 0.451608 0.359203 0.359203,lo,89.0,15.0,0.0,0.0,25.0,0.0,9.5,2.254054038176331,51.28861161062099,14.067781228362769,17.22952987628308,25.916379952913783,8.996199584959317,7.155322034756824,6.6649047076689305,19.759037338919963,12.275620415760216,8.00285496370996
07_10,Raw Data\07_10\07_10_test_104.csv,,Integrated Beam Prototype 3,-0.046833 -0.046833 -0.046016 -0.046016 : 0.009751 0.009751 0.048646 0.048646 : 0.451608 0.451608 0.359203 0.359203,lo,89.0,15.0,0.0,0.0,25.0,0.0,9.5,2.254054038176331,51.28861161062099,17.20316595252188,16.82076301695084,16.74438958384216,6.989973809704527,8.381135965411316,6.00284543952734,20.89498790742129,8.006129628731864,8.968559179945292
07_10,Raw Data\07_10\07_10_test_105.csv,,Integrated Beam Prototype 3,-0.046833 -0.046833 -0.046016 -0.046016 : 0.009751 0.009751 0.048646 0.048646 : 0.451608 0.451608 0.359203 0.359203,lo,89.0,15.0,0.0,0.0,25.0,0.0,9.5,2.254054038176331,51.28861161062099,18.20399906654926,21.181620127518844,22.625203236285127,9.614071224113536,6.810015302077407,5.197849215373187,14.60177982263627,7.029555699522786,12.146740555189124
07_10,Raw Data\07_10\07_10_test_106.csv,,Integrated Beam Prototype 3,-0.046833 -0.046833 -0.046016 -0.046016 : 0.009751 0.009751 0.048646 0.048646 : 0.451608 0.451608 0.359203 0.359203,lo,89.0,15.0,0.0,0.0,25.0,0.0,9.5,2.254054038176331,51.28861161062099,18.258559803703463,18.18163920854109,18.374176194925063,10.60860397191698,6.904773928245318,7.465767856288977,15.441023742602368,9.351521265249035,13.985982575080351
07_10,Raw Data\07_10\07_10_test_107.csv,,Integrated Beam Prototype 3,-0.046833 -0.046833 -0.046016 -0.046016 : 0.009751 0.009751 0.048646 0.048646 : 0.451608 0.451608 0.359203 0.359203,lo,89.0,15.0,0.0,0.0,25.0,0.0,9.5,2.254054038176331,51.28861161062099,14.44527401073119,17.951144096104816,19.634506155120352,7.820913399534321,5.3347794402982425,8.876862039617961,12.93169083125474,7.404217995696723,13.883929179007383
07_10,Raw Data\07_10\07_10_test_108.csv,,Integrated Beam Prototype 3,-0.046833 -0.046833 -0.046016 -0.046016 : 0.009751 0.009751 0.048646 0.048646 : 0.451608 0.451608 0.359203 0.359203,lo,89.0,15.0,0.0,0.0,25.0,0.0,9.5,2.254054038176331,51.28861161062099,14.717827043121783,16.318323791495366,25.414611007893544,10.335608542952508,8.205505457487487,8.235525639440024,21.17263032223777,7.088859570773844,12.513287951595943
07_10,Raw Data\07_10\07_10_test_109.csv,,Integrated Beam Prototype 3,-0.046833 -0.046833 -0.046016 -0.046016 : 0.009751 0.009751 0.048646 0.048646 : 0.451608 0.451608 0.359203 0.359203,lo,89.0,15.0,0.0,0.0,25.0,0.0,9.5,2.254054038176331,51.28861161062099,14.212293397809535,15.234448113956873,15.86150097600051,10.016598931951584,12.516401725105103,8.237067532457244,14.328395899719624,7.8197093404154066,8.935261184791896
07_10,Raw Data\07_10\07_10_test_110.csv,,Integrated Beam Prototype 3,-0.046833 -0.046833 -0.046016 -0.046016 : 0.009751 0.009751 0.048646 0.048646 : 0.451608 0.451608 0.359203 0.359203,lo,89.0,15.0,0.0,0.0,25.0,0.0,9.5,2.254054038176331,51.28861161062099,16.00944779710551,15.397915602422808,22.45005728092952,10.621841304235408,9.17132508321378,5.320258737389647,23.436726568895768,7.246045067899947,10.201593453948073
07_10,Raw Data\07_10\07_10_test_111.csv,,Integrated Beam Prototype 3,-0.046833 -0.046833 -0.046016 -0.046016 : 0.009751 0.009751 0.048646 0.048646 : 0.451608 0.451608 0.359203 0.359203,lo,89.0,15.0,0.0,0.0,25.0,0.0,9.5,2.254054038176331,51.28861161062099,16.26098169003723,16.599626096190086,15.7607396512978,10.269091734885254,7.3187959739774,10.191089008973243,20.327472769246125,7.182932641626449,13.461283816314475
07_10,Raw Data\07_10\07_10_test_112.csv,,Integrated Beam Prototype 3,-0.046833 -0.046833 -0.046016 -0.046016 : 0.009751 0.009751 0.048646 0.048646 : 0.451608 0.451608 0.359203 0.359203,lo,89.0,15.0,0.0,0.0,25.0,0.0,9.5,2.254054038176331,51.28861161062099,15.03371628553754,16.64912973277726,22.574670273697308,10.1040857850439,6.20330451153533,11.46889386029484,18.1023721334116,7.627373929925437,12.799401106816958
07_10,Raw Data\07_10\07_10_test_113.csv,,Integrated Beam Prototype 3,-0.046833 -0.046833 -0.046016 -0.046016 : 0.009751 0.009751 0.048646 0.048646 : 0.451608 0.451608 0.359203 0.359203,lo,89.0,15.0,0.0,0.0,25.0,0.0,9.5,2.254054038176331,51.28861161062099,14.741384908125733,17.83749171475815,16.724102884846154,10.444550122449153,8.490114041941798,9.038354647669069,23.57287657030104,10.71001448797152,10.974618254164833
07_10,Raw Data\07_10\07_10_test_114.csv,,Integrated Beam Prototype 3,-0.046833 -0.046833 -0.046016 -0.046016 : 0.009751 0.009751 0.048646 0.048646 : 0.451608 0.451608 0.359203 0.359203,lo,89.0,15.0,0.0,0.0,25.0,0.0,9.5,2.254054038176331,51.28861161062099,14.852499912462646,15.921153761334716,22.1468150380162,8.302834699097131,6.444206842837631,10.334652180305747,21.682291582454457,9.708364860969304,13.632286849041646
07_10,Raw Data\07_10\07_10_test_115.csv,,Integrated Beam Prototype 3,-0.046833 -0.046833 -0.046016 -0.046016 : 0.009751 0.009751 0.048646 0.048646 : 0.451608 0.451608 0.359203 0.359203,lo,89.0,15.0,0.0,0.0,25.0,0.0,9.5,2.254054038176331,51.28861161062099,17.79121791612019,14.43334128632088,22.269652196991867,9.97858203992765,5.602854033730356,4.816914613796765,21.44303667878489,9.83878367069989,11.410086941000106
07_10,Raw Data\07_10\07_10_test_116.csv,,Integrated Beam Prototype 3,-0.046833 -0.046833 -0.046016 -0.046016 : 0.009751 0.009751 0.048646 0.048646 : 0.451608 0.451608 0.359203 0.359203,med,89.0,15.0,0.0,0.0,25.0,0.0,9.0,2.620293872014538,81.04052945539165,24.171397420094184,22.949672918267883,22.364517178795925,27.97981082280113,29.31521664789144,27.608441880709503,25.45136536929597,27.92281788929561,23.92716343170301
07_10,Raw Data\07_10\07_10_test_117.csv,,Integrated Beam Prototype 3,-0.046833 -0.046833 -0.046016 -0.046016 : 0.009751 0.009751 0.048646 0.048646 : 0.451608 0.451608 0.359203 0.359203,med,89.0,15.0,0.0,0.0,25.0,0.0,9.0,2.620293872014538,81.04052945539165,22.453452905171726,18.405046591187883,19.69232062045233,30.858277298894613,27.33798360018629,27.496010004803463,23.634058669753333,29.652546889446945,24.78260603097955
07_10,Raw Data\07_10\07_10_test_118.csv,,Integrated Beam Prototype 3,-0.046833 -0.046833 -0.046016 -0.046016 : 0.009751 0.009751 0.048646 0.048646 : 0.451608 0.451608 0.359203 0.359203,med,89.0,15.0,0.0,0.0,25.0,0.0,9.0,2.620293872014538,81.04052945539165,21.71340656341239,22.79120508375958,21.17626546888163,26.075739562515537,26.3734455231732,28.05364416835925,26.052831767547364,26.27052648731404,23.15644815964811
07_10,Raw Data\07_10\07_10_test_119.csv,,Integrated Beam Prototype 3,-0.046833 -0.046833 -0.046016 -0.046016 : 0.009751 0.009751 0.048646 0.048646 : 0.451608 0.451608 0.359203 0.359203,med,89.0,15.0,0.0,0.0,25.0,0.0,9.0,2.620293872014538,81.04052945539165,24.50693940648023,19.24262592738452,21.023891203161863,26.44229046579082,25.06093724323752,23.739260881942347,22.10150129642238,23.34814111257082,18.225811443268363
07_10,Raw Data\07_10\07_10_test_120.csv,,Integrated Beam Prototype 3,-0.046833 -0.046833 -0.046016 -0.046016 : 0.009751 0.009751 0.048646 0.048646 : 0.451608 0.451608 0.359203 0.359203,med,89.0,15.0,0.0,0.0,25.0,0.0,9.0,2.620293872014538,81.04052945539165,24.836993881770294,23.08424744946484,20.14349921518066,27.025501012535106,25.739165215180805,26.345479404617336,25.87002705534859,21.61911358134656,20.838469522303708
07_10,Raw Data\07_10\07_10_test_121.csv,,Integrated Beam Prototype 3,-0.046833 -0.046833 -0.046016 -0.046016 : 0.009751 0.009751 0.048646 0.048646 : 0.451608 0.451608 0.359203 0.359203,med,89.0,15.0,0.0,0.0,25.0,0.0,9.0,2.620293872014538,81.04052945539165,18.306329468370368,23.333983210257884,21.86948403778943,23.72778603896214,22.439059657275703,23.899157946450348,17.362728529828985,24.47843825062029,20.57690504086981
07_10,Raw Data\07_10\07_10_test_122.csv,,Integrated Beam Prototype 3,-0.046833 -0.046833 -0.046016 -0.046016 : 0.009751 0.009751 0.048646 0.048646 : 0.451608 0.451608 0.359203 0.359203,med,89.0,15.0,0.0,0.0,25.0,0.0,9.0,2.620293872014538,81.04052945539165,20.08577216359404,25.077815531568035,24.816625670662408,26.678536760475986,25.107227147570143,27.040377806852263,22.673462282887385,25.3375710174462,22.353504909641625
07_10,Raw Data\07_10\07_10_test_123.csv,,Integrated Beam Prototype 3,-0.046833 -0.046833 -0.046016 -0.046016 : 0.009751 0.009751 0.048646 0.048646 : 0.451608 0.451608 0.359203 0.359203,med,89.0,15.0,0.0,0.0,25.0,0.0,9.0,2.620293872014538,81.04052945539165,21.11690607693433,22.12273780918041,22.505259081382643,25.796122774374822,23.275122008270024,25.042497948796544,25.11340871963821,25.759903312325235,23.114081518824328
07_10,Raw Data\07_10\07_10_test_124.csv,,Integrated Beam Prototype 3,-0.046833 -0.046833 -0.046016 -0.046016 : 0.009751 0.009751 0.048646 0.048646 : 0.451608 0.451608 0.359203 0.359203,med,89.0,15.0,0.0,0.0,25.0,0.0,9.0,2.620293872014538,81.04052945539165,23.39844729246739,19.79525547563445,22.03322408365826,24.113468461696822,23.9571573660874,27.575009970373248,24.212438610929407,24.32476292333926,23.81805346076313
07_10,Raw Data\07_10\07_10_test_125.csv,,Integrated Beam Prototype 3,-0.046833 -0.046833 -0.046016 -0.046016 : 0.009751 0.009751 0.048646 0.048646 : 0.451608 0.451608 0.359203 0.359203,med,89.0,15.0,0.0,0.0,25.0,0.0,9.0,2.620293872014538,81.04052945539165,20.612097754146507,20.6251072641486,22.278199649980323,26.60225795454283,25.17420839437158,25.405718772678227,25.572721544066024,28.20253215218621,20.332378388623912
07_10,Raw Data\07_10\07_10_test_126.csv,,Integrated Beam Prototype 3,-0.046833 -0.046833 -0.046016 -0.046016 : 0.009751 0.009751 0.048646 0.048646 : 0.451608 0.451608 0.359203 0.359203,med,89.0,15.0,0.0,0.0,25.0,0.0,9.0,2.620293872014538,81.04052945539165,20.368733985920063,21.07878945451177,23.84804217696671,27.13799425343732,27.23745888585717,27.83831986209747,27.218310013054708,22.976985149777047,25.38013595312896
07_10,Raw Data\07_10\07_10_test_127.csv,,Integrated Beam Prototype 3,-0.046833 -0.046833 -0.046016 -0.046016 : 0.009751 0.009751 0.048646 0.048646 : 0.451608 0.451608 0.359203 0.359203,med,89.0,15.0,0.0,0.0,25.0,0.0,9.0,2.620293872014538,81.04052945539165,23.42096930341297,24.38093628388602,18.79828651636986,27.80462533672569,26.97649082721212,24.891055178118656,24.65969692754929,24.558665009065724,20.372398246651564
07_10,Raw Data\07_10\07_10_test_128.csv,,Integrated Beam Prototype 3,-0.046833 -0.046833 -0.046016 -0.046016 : 0.009751 0.009751 0.048646 0.048646 : 0.451608 0.451608 0.359203 0.359203,med,89.0,15.0,0.0,0.0,25.0,0.0,9.0,2.620293872014538,81.04052945539165,21.82842031273806,22.05580966299564,20.76622382849207,24.2892309055639,23.126322073405422,25.656710104274364,27.80481304023701,29.68769637896392,21.13482748951831
07_10,Raw Data\07_10\07_10_test_129.csv,,Integrated Beam Prototype 3,-0.046833 -0.046833 -0.046016 -0.046016 : 0.009751 0.009751 0.048646 0.048646 : 0.451608 0.451608 0.359203 0.359203,med,89.0,15.0,0.0,0.0,25.0,0.0,9.0,2.620293872014538,81.04052945539165,22.734438270104047,22.129675260518184,21.647937200904977,27.287910433904376,26.10576058826511,26.18861937320853,23.58030303027219,23.857025147542128,22.269084209234578
07_10,Raw Data\07_10\07_10_test_130.csv,,Integrated Beam Prototype 3,-0.046833 -0.046833 -0.046016 -0.046016 : 0.009751 0.009751 0.048646 0.048646 : 0.451608 0.451608 0.359203 0.359203,med,89.0,15.0,0.0,0.0,25.0,0.0,9.0,2.620293872014538,81.04052945539165,22.43045284834486,22.60284254758602,22.48984795580365,24.9749998929075,22.08568607556261,24.97471370057205,25.41375475880432,24.973768634857564,23.836776466996955
07_10,Raw Data\07_10\07_10_test_131.csv,,Integrated Beam Prototype 3,-0.046833 -0.046833 -0.046016 -0.046016 : 0.009751 0.009751 0.048646 0.048646 : 0.451608 0.451608 0.359203 0.359203,hi,89.0,15.0,0.0,0.0,25.0,0.0,9.0,2.819811422029002,90.36149179202869,37.72087293337181,36.13226098141008,35.63498134013978,43.37179321283488,39.32295320265846,41.78288491629878,41.26011544982252,33.794720850127675,30.59287253159744
07_10,Raw Data\07_10\07_10_test_132.csv,,Integrated Beam Prototype 3,-0.046833 -0.046833 -0.046016 -0.046016 : 0.009751 0.009751 0.048646 0.048646 : 0.451608 0.451608 0.359203 0.359203,hi,89.0,15.0,0.0,0.0,25.0,0.0,9.0,2.819811422029002,90.36149179202869,37.94496978497944,35.854688059402534,37.2822193506357,43.7425297525537,40.172087916344665,45.728771046463095,41.21713218562612,35.23846959895019,38.53595334191407
07_10,Raw Data\07_10\07_10_test_133.csv,,Integrated Beam Prototype 3,-0.046833 -0.046833 -0.046016 -0.046016 : 0.009751 0.009751 0.048646 0.048646 : 0.451608 0.451608 0.359203 0.359203,hi,89.0,15.0,0.0,0.0,25.0,0.0,9.0,2.819811422029002,90.36149179202869,39.91147474436621,38.38542214125263,38.66065167567535,44.46865402635614,42.05250619613922,44.388214538113154,40.198664330207066,32.94764015851116,38.50612672326846
07_10,Raw Data\07_10\07_10_test_134.csv,,Integrated Beam Prototype 3,-0.046833 -0.046833 -0.046016 -0.046016 : 0.009751 0.009751 0.048646 0.048646 : 0.451608 0.451608 0.359203 0.359203,hi,89.0,15.0,0.0,0.0,25.0,0.0,9.0,2.819811422029002,90.36149179202869,42.63986356424476,34.94868048243587,44.06481854924153,36.35570638454213,41.79597674014828,45.09103180392228,40.47730618904709,31.02170436497845,38.50175303714947
07_10,Raw Data\07_10\07_10_test_135.csv,,Integrated Beam Prototype 3,-0.046833 -0.046833 -0.046016 -0.046016 : 0.009751 0.009751 0.048646 0.048646 : 0.451608 0.451608 0.359203 0.359203,hi,89.0,15.0,0.0,0.0,25.0,0.0,9.0,2.819811422029002,90.36149179202869,40.99913215111272,35.02349476937459,36.20467860591253,45.54563303423605,43.54801554651668,42.42415357086536,45.55173625821262,32.470331215006176,33.96138596880055
07_10,Raw Data\07_10\07_10_test_136.csv,,Integrated Beam Prototype 3,-0.046833 -0.046833 -0.046016 -0.046016 : 0.009751 0.009751 0.048646 0.048646 : 0.451608 0.451608 0.359203 0.359203,hi,89.0,15.0,0.0,0.0,25.0,0.0,9.0,2.819811422029002,90.36149179202869,39.97872452065521,37.5667581063824,38.29166713484934,40.37627977165392,41.80565257585401,42.60652873659903,38.993673488584,34.62411607334423,37.51930868747508
07_10,Raw Data\07_10\07_10_test_137.csv,,Integrated Beam Prototype 3,-0.046833 -0.046833 -0.046016 -0.046016 : 0.009751 0.009751 0.048646 0.048646 : 0.451608 0.451608 0.359203 0.359203,hi,89.0,15.0,0.0,0.0,25.0,0.0,9.0,2.819811422029002,90.36149179202869,39.74663845654998,35.05289782441652,37.1012386806967,46.762128034958906,45.063123426064536,44.15324527670979,42.122922509676464,36.00933489138745,36.12426126849158
07_10,Raw Data\07_10\07_10_test_138.csv,,Integrated Beam Prototype 3,-0.046833 -0.046833 -0.046016 -0.046016 : 0.009751 0.009751 0.048646 0.048646 : 0.451608 0.451608 0.359203 0.359203,hi,89.0,15.0,0.0,0.0,25.0,0.0,9.0,2.819811422029002,90.36149179202869,40.66743573084965,34.55675567848812,37.54052990793837,39.79950311482819,41.546055752289895,44.68438034047509,40.553646234894686,31.39738537314208,39.73726510533896
07_10,Raw Data\07_10\07_10_test_139.csv,,Integrated Beam Prototype 3,-0.046833 -0.046833 -0.046016 -0.046016 : 0.009751 0.009751 0.048646 0.048646 : 0.451608 0.451608 0.359203 0.359203,hi,89.0,15.0,0.0,0.0,25.0,0.0,9.0,2.819811422029002,90.36149179202869,40.22557859957768,32.59680362678124,37.08844136099107,42.046220319077726,43.44499041394573,42.05028035426789,45.27435248708879,34.9360291717515,35.691729149832604
07_10,Raw Data\07_10\07_10_test_140.csv,,Integrated Beam Prototype 3,-0.046833 -0.046833 -0.046016 -0.046016 : 0.009751 0.009751 0.048646 0.048646 : 0.451608 0.451608 0.359203 0.359203,hi,89.0,15.0,0.0,0.0,25.0,0.0,9.0,2.819811422029002,90.36149179202869,41.32950208616719,38.38037133102882,36.71295368706802,40.85264337135199,41.0558437209995,42.1380733092513,42.41081820726501,35.53328533001168,32.85965635596381
07_10,Raw Data\07_10\07_10_test_141.csv,,Integrated Beam Prototype 3,-0.046833 -0.046833 -0.046016 -0.046016 : 0.009751 0.009751 0.048646 0.048646 : 0.451608 0.451608 0.359203 0.359203,hi,89.0,15.0,0.0,0.0,25.0,0.0,9.0,2.819811422029002,90.36149179202869,34.16262972300839,37.46008117773349,38.20626754786001,44.07547526991858,43.8626671982972,38.56984305520015,43.9019460541626,36.442805194446,40.989338911111865
07_10,Raw Data\07_10\07_10_test_142.csv,,Integrated Beam Prototype 3,-0.046833 -0.046833 -0.046016 -0.046016 : 0.009751 0.009751 0.048646 0.048646 : 0.451608 0.451608 0.359203 0.359203,hi,89.0,15.0,0.0,0.0,25.0,0.0,9.0,2.819811422029002,90.36149179202869,37.95917253670392,37.94201378530432,36.5072034380736,44.84396451857412,45.566141250604176,43.767156076831824,37.64451577409687,32.12612485262973,37.68684059101738
07_10,Raw Data\07_10\07_10_test_143.csv,,Integrated Beam Prototype 3,-0.046833 -0.046833 -0.046016 -0.046016 : 0.009751 0.009751 0.048646 0.048646 : 0.451608 0.451608 0.359203 0.359203,hi,89.0,15.0,0.0,0.0,25.0,0.0,9.0,2.819811422029002,90.36149179202869,39.15772231453941,35.42660323186381,33.400094226989204,39.68759119109044,44.26429706467279,42.21064079167749,39.91077878717177,34.44300146150187,37.4294365148812
07_10,Raw Data\07_10\07_10_test_144.csv,,Integrated Beam Prototype 3,-0.046833 -0.046833 -0.046016 -0.046016 : 0.009751 0.009751 0.048646 0.048646 : 0.451608 0.451608 0.359203 0.359203,hi,89.0,15.0,0.0,0.0,25.0,0.0,9.0,2.819811422029002,90.36149179202869,36.30391774578198,34.52558399456897,36.44505918504734,36.74229163885772,40.27917558045954,46.253266476482125,41.88899566250869,37.0007667868399,38.184740134664445
07_10,Raw Data\07_10\07_10_test_145.csv,,Integrated Beam Prototype 3,-0.046833 -0.046833 -0.046016 -0.046016 : 0.009751 0.009751 0.048646 0.048646 : 0.451608 0.451608 0.359203 0.359203,hi,89.0,15.0,0.0,0.0,25.0,0.0,9.0,2.819811422029002,90.36149179202869,38.253208694836125,38.4464692631991,34.92827835509953,42.9191503010576,42.91144426895479,43.64620280890759,41.44820997487657,35.01754550116904,36.02770433455969
07_11,Raw Data\07_11\07_11_test_1.csv,,Integrated Beam Prototype 3,-0.046833 -0.046833 -0.046016 -0.046016 : 0.009751 0.009751 0.048646 0.048646 : 0.451608 0.451608 0.359203 0.359203,hi,89.0,15.0,0.0,0.0,25.0,0.0,9.0,2.819811422029002,90.36149179202869,40.23837870808785,39.16674108473645,41.46791602556036,45.95832669702497,44.32909959843626,46.3293936190939,40.371705678024576,34.46244544295867,38.71411797508984
07_11,Raw Data\07_11\07_11_test_2.csv,,Integrated Beam Prototype 3,-0.046833 -0.046833 -0.046016 -0.046016 : 0.009751 0.009751 0.048646 0.048646 : 0.451608 0.451608 0.359203 0.359203,hi,89.0,15.0,0.0,0.0,25.0,0.0,9.0,2.819811422029002,90.36149179202869,41.33984089769715,36.266596394076295,30.91889440058692,41.48363132733963,43.44165407152991,39.52412460634027,41.94227608507092,35.5106970213541,33.41584266593859
07_11,Raw Data\07_11\07_11_test_3.csv,,Integrated Beam Prototype 3,-0.046833 -0.046833 -0.046016 -0.046016 : 0.009751 0.009751 0.048646 0.048646 : 0.451608 0.451608 0.359203 0.359203,hi,89.0,15.0,0.0,0.0,25.0,0.0,9.0,2.819811422029002,90.36149179202869,41.064558737925495,32.652834630258894,35.89538710789106,42.11724256834209,42.21389068113251,43.81635107547834,41.24499354069648,35.302858326891794,40.27841382026904
07_11,Raw Data\07_11\07_11_test_4.csv,,Integrated Beam Prototype 3,-0.046833 -0.046833 -0.046016 -0.046016 : 0.009751 0.009751 0.048646 0.048646 : 0.451608 0.451608 0.359203 0.359203,hi,89.0,15.0,0.0,0.0,25.0,0.0,9.0,2.819811422029002,90.36149179202869,38.2116971761145,33.43489592506925,35.95422870523722,42.1102259448601,46.243224294286215,40.30455450380802,44.50291791219796,35.13817911749477,35.6406447135667
07_11,Raw Data\07_11\07_11_test_5.csv,,Integrated Beam Prototype 3,-0.046833 -0.046833 -0.046016 -0.046016 : 0.009751 0.009751 0.048646 0.048646 : 0.451608 0.451608 0.359203 0.359203,hi,89.0,15.0,0.0,0.0,25.0,0.0,9.0,2.819811422029002,90.36149179202869,40.48113647700908,34.461008537681266,36.71955284436499,39.28474165893707,39.67880034294836,47.13796977633353,44.47568877178877,34.54803327094039,38.57860551420716
07_11,Raw Data\07_11\07_11_test_6.csv,,Integrated Beam Prototype 3,-0.046833 -0.046833 -0.046016 -0.046016 : 0.009751 0.009751 0.048646 0.048646 : 0.451608 0.451608 0.359203 0.359203,hi,89.0,15.0,0.0,0.0,25.0,0.0,9.0,2.819811422029002,90.36149179202869,38.66541653489519,33.55090089515542,33.89609373285792,46.07358798360432,48.68708785426293,41.131798146887874,40.82067433519351,38.24970977809095,33.105072513577305
07_11,Raw Data\07_11\07_11_test_7.csv,,Integrated Beam Prototype 3,-0.046833 -0.046833 -0.046016 -0.046016 : 0.009751 0.009751 0.048646 0.048646 : 0.451608 0.451608 0.359203 0.359203,hi,89.0,15.0,0.0,0.0,25.0,0.0,9.0,2.819811422029002,90.36149179202869,40.38400246953882,35.985865198141354,38.761462788320365,44.48411007111035,40.71710901490413,48.82060541843581,41.19792677081952,28.666293973811594,41.3418288609477
07_11,Raw Data\07_11\07_11_test_8.csv,,Integrated Beam Prototype 3,-0.046833 -0.046833 -0.046016 -0.046016 : 0.009751 0.009751 0.048646 0.048646 : 0.451608 0.451608 0.359203 0.359203,hi,89.0,15.0,0.0,0.0,25.0,0.0,9.0,2.819811422029002,90.36149179202869,43.87605972388493,33.688360866300734,37.08513993082309,42.63546165864681,44.34576342884052,37.7712492514411,40.574689912149886,33.8336881675266,38.76903918708102
07_11,Raw Data\07_11\07_11_test_9.csv,,Integrated Beam Prototype 3,-0.046833 -0.046833 -0.046016 -0.046016 : 0.009751 0.009751 0.048646 0.048646 : 0.451608 0.451608 0.359203 0.359203,hi,89.0,15.0,0.0,0.0,25.0,0.0,9.0,2.819811422029002,90.36149179202869,39.36019695131994,34.56493754967172,35.298326624192505,43.21926365360399,41.30546347258932,44.2270765525795,39.8663664373321,39.37296010115397,37.86192165723855
07_11,Raw Data\07_11\07_11_test_10.csv,,Integrated Beam Prototype 3,-0.046833 -0.046833 -0.046016 -0.046016 : 0.009751 0.009751 0.048646 0.048646 : 0.451608 0.451608 0.359203 0.359203,hi,89.0,15.0,0.0,0.0,25.0,0.0,9.0,2.819811422029002,90.36149179202869,40.41533537005724,33.522144758350244,34.856965896765026,43.551719497281645,40.13414741428856,41.28374837912909,41.08640191652274,37.030849510354166,40.27714796656243
07_11,Raw Data\07_11\07_11_test_11.csv,,Integrated Beam Prototype 3,-0.046833 -0.046833 -0.046016 -0.046016 : 0.009751 0.009751 0.048646 0.048646 : 0.451608 0.451608 0.359203 0.359203,hi,89.0,15.0,0.0,0.0,25.0,0.0,9.0,2.819811422029002,90.36149179202869,38.45544773681034,34.57886101778722,38.624244154124455,40.37635518151599,41.24464879577398,41.649709918989,42.42602957834088,32.59847915899386,42.49087262015782
07_11,Raw Data\07_11\07_11_test_12.csv,,Integrated Beam Prototype 3,-0.046833 -0.046833 -0.046016 -0.046016 : 0.009751 0.009751 0.048646 0.048646 : 0.451608 0.451608 0.359203 0.359203,hi,89.0,15.0,0.0,0.0,25.0,0.0,9.0,2.819811422029002,90.36149179202869,40.66516719535366,35.57749780971,35.36612843715353,46.73735454402773,41.08898958626464,40.75458029260584,38.83768822995118,34.69493767068622,33.323810812691335
07_11,Raw Data\07_11\07_11_test_13.csv,,Integrated Beam Prototype 3,-0.046833 -0.046833 -0.046016 -0.046016 : 0.009751 0.009751 0.048646 0.048646 : 0.451608 0.451608 0.359203 0.359203,hi,89.0,15.0,0.0,0.0,25.0,0.0,9.0,2.819811422029002,90.36149179202869,42.457234192939474,35.84086456665232,38.58203821742577,42.28527749918509,44.08145449212609,43.5751811092113,39.1748258061631,34.88195642498908,36.28194436083135
07_11,Raw Data\07_11\07_11_test_14.csv,,Integrated Beam Prototype 3,-0.046833 -0.046833 -0.046016 -0.046016 : 0.009751 0.009751 0.048646 0.048646 : 0.451608 0.451608 0.359203 0.359203,hi,89.0,15.0,0.0,0.0,25.0,0.0,9.0,2.819811422029002,90.36149179202869,36.64993193748498,34.07754026717993,36.66644253786357,39.25536274561972,43.34742949030809,40.88910579463109,40.39642260846189,34.642289454495106,34.00931466362133
07_11,Raw Data\07_11\07_11_test_15.csv,,Integrated Beam Prototype 3,-0.046833 -0.046833 -0.046016 -0.046016 : 0.009751 0.009751 0.048646 0.048646 : 0.451608 0.451608 0.359203 0.359203,hi,89.0,15.0,0.0,0.0,25.0,0.0,9.0,2.819811422029002,90.36149179202869,40.192995798666935,31.674265249494432,36.843239717263536,40.66157906042792,39.50594756767976,45.42985487637876,37.48501562169217,31.822556816654068,40.33658411837612
07_11,Raw Data\07_11\07_11_test_16.csv,,Integrated Beam Prototype 3,-0.046833 -0.046833 -0.046016 -0.046016 : 0.009751 0.009751 0.048646 0.048646 : 0.451608 0.451608 0.359203 0.359203,med,89.0,15.0,0.0,0.0,25.0,0.0,9.0,2.620293872014538,81.04052945539165,23.495546236881736,25.48696980828777,25.11853780648092,26.308464779527107,26.63541514716223,26.257424377760568,25.238977420416383,26.156099831888977,25.35681415007445
07_11,Raw Data\07_11\07_11_test_17.csv,,Integrated Beam Prototype 3,-0.046833 -0.046833 -0.046016 -0.046016 : 0.009751 0.009751 0.048646 0.048646 : 0.451608 0.451608 0.359203 0.359203,med,89.0,15.0,0.0,0.0,25.0,0.0,9.0,2.620293872014538,81.04052945539165,26.236828230959823,21.152793989987,25.00410075806069,29.23127820808799,30.683065113389432,25.56961979277969,28.04200545720841,30.4806312310608,28.19938034942085
07_11,Raw Data\07_11\07_11_test_18.csv,,Integrated Beam Prototype 3,-0.046833 -0.046833 -0.046016 -0.046016 : 0.009751 0.009751 0.048646 0.048646 : 0.451608 0.451608 0.359203 0.359203,med,89.0,15.0,0.0,0.0,25.0,0.0,9.0,2.620293872014538,81.04052945539165,26.02086648924557,24.311687730685065,24.663542000146528,26.839783852487137,26.08866720541715,28.75916334812745,24.0798173491121,24.828890342514704,25.16497723590156
07_11,Raw Data\07_11\07_11_test_19.csv,,Integrated Beam Prototype 3,-0.046833 -0.046833 -0.046016 -0.046016 : 0.009751 0.009751 0.048646 0.048646 : 0.451608 0.451608 0.359203 0.359203,med,89.0,15.0,0.0,0.0,25.0,0.0,9.0,2.620293872014538,81.04052945539165,23.294251596017112,25.403043854633555,22.206286298172817,30.40476707329766,25.9483690250534,27.61354467967703,27.600667927652303,27.086816600556784,20.719716374994924
07_11,Raw Data\07_11\07_11_test_20.csv,,Integrated Beam Prototype 3,-0.046833 -0.046833 -0.046016 -0.046016 : 0.009751 0.009751 0.048646 0.048646 : 0.451608 0.451608 0.359203 0.359203,med,89.0,15.0,0.0,0.0,25.0,0.0,9.0,2.620293872014538,81.04052945539165,24.03032303904104,23.573420427691023,21.14577344913529,27.102961228605952,25.015018207653185,31.434133696680043,26.183563790937995,26.92152425927939,22.641266695135467
07_11,Raw Data\07_11\07_11_test_21.csv,,Integrated Beam Prototype 3,-0.046833 -0.046833 -0.046016 -0.046016 : 0.009751 0.009751 0.048646 0.048646 : 0.451608 0.451608 0.359203 0.359203,med,89.0,15.0,0.0,0.0,25.0,0.0,9.0,2.620293872014538,81.04052945539165,23.829487006685152,24.314829178190465,21.43733226906782,26.89336731032651,27.34909761370859,26.36102440262051,25.66513447670504,29.528784230537248,26.71525620736212
07_11,Raw Data\07_11\07_11_test_22.csv,,Integrated Beam Prototype 3,-0.046833 -0.046833 -0.046016 -0.046016 : 0.009751 0.009751 0.048646 0.048646 : 0.451608 0.451608 0.359203 0.359203,med,89.0,15.0,0.0,0.0,25.0,0.0,9.0,2.620293872014538,81.04052945539165,24.042093080771966,26.638840339659463,27.30509288515904,29.96811046494245,27.38776877738456,29.29189476875725,27.044561965650065,26.09428089891629,26.32703826826182
07_11,Raw Data\07_11\07_11_test_23.csv,,Integrated Beam Prototype 3,-0.046833 -0.046833 -0.046016 -0.046016 : 0.009751 0.009751 0.048646 0.048646 : 0.451608 0.451608 0.359203 0.359203,med,89.0,15.0,0.0,0.0,25.0,0.0,9.0,2.620293872014538,81.04052945539165,24.566148775906736,23.40497756656093,24.839282670750663,28.490688074053388,24.681683062033937,25.87627683667789,24.478964384446616,31.22119033054382,24.022658567812595
07_11,Raw Data\07_11\07_11_test_24.csv,,Integrated Beam Prototype 3,-0.046833 -0.046833 -0.046016 -0.046016 : 0.009751 0.009751 0.048646 0.048646 : 0.451608 0.451608 0.359203 0.359203,med,89.0,15.0,0.0,0.0,25.0,0.0,9.0,2.620293872014538,81.04052945539165,28.32544717548814,22.20043812173757,22.79022084935896,28.506892703396986,26.778962796180565,29.15580992481357,28.947223120190703,28.24517402228893,22.873968928950315
07_11,Raw Data\07_11\07_11_test_25.csv,,Integrated Beam Prototype 3,-0.046833 -0.046833 -0.046016 -0.046016 : 0.009751 0.009751 0.048646 0.048646 : 0.451608 0.451608 0.359203 0.359203,med,89.0,15.0,0.0,0.0,25.0,0.0,9.0,2.620293872014538,81.04052945539165,21.906209085233566,18.31001398539657,23.98762609876725,30.14254759879987,27.477766982989085,27.38307152603284,27.64532810077029,31.11162725226883,21.6813796107856
07_11,Raw Data\07_11\07_11_test_26.csv,,Integrated Beam Prototype 3,-0.046833 -0.046833 -0.046016 -0.046016 : 0.009751 0.009751 0.048646 0.048646 : 0.451608 0.451608 0.359203 0.359203,med,89.0,15.0,0.0,0.0,25.0,0.0,9.0,2.620293872014538,81.04052945539165,22.956979027794805,24.19313827068625,25.898198819638008,28.13560981378393,27.52813746591103,26.27623490821432,25.33117216212927,27.426743469559263,23.56853575830347
07_11,Raw Data\07_11\07_11_test_27.csv,,Integrated Beam Prototype 3,-0.046833 -0.046833 -0.046016 -0.046016 : 0.009751 0.009751 0.048646 0.048646 : 0.451608 0.451608 0.359203 0.359203,med,89.0,15.0,0.0,0.0,25.0,0.0,9.0,2.620293872014538,81.04052945539165,28.04170986843024,24.967911326744744,22.293969716209592,27.779403253052905,29.787376505075525,29.411459537333883,25.49066455905893,28.348085917370227,22.775690375378044
07_11,Raw Data\07_11\07_11_test_28.csv,,Integrated Beam Prototype 3,-0.046833 -0.046833 -0.046016 -0.046016 : 0.009751 0.009751 0.048646 0.048646 : 0.451608 0.451608 0.359203 0.359203,med,89.0,15.0,0.0,0.0,25.0,0.0,9.0,2.620293872014538,81.04052945539165,26.05523977357622,27.288573249254352,23.02828672891062,28.33544349461718,23.331839644109685,30.13075246869727,29.50879895436031,26.20653492769693,21.6152655963345
07_11,Raw Data\07_11\07_11_test_29.csv,,Integrated Beam Prototype 3,-0.046833 -0.046833 -0.046016 -0.046016 : 0.009751 0.009751 0.048646 0.048646 : 0.451608 0.451608 0.359203 0.359203,med,89.0,15.0,0.0,0.0,25.0,0.0,9.0,2.620293872014538,81.04052945539165,25.781024286159106,22.72921865941996,22.08425943703519,25.508467288241366,27.38250943869384,28.01578041118176,26.89255036048188,30.61572948372942,25.45529835110145
07_11,Raw Data\07_11\07_11_test_30.csv,,Integrated Beam Prototype 3,-0.046833 -0.046833 -0.046016 -0.046016 : 0.009751 0.009751 0.048646 0.048646 : 0.451608 0.451608 0.359203 0.359203,med,89.0,15.0,0.0,0.0,25.0,0.0,9.0,2.620293872014538,81.04052945539165,23.16229775535056,22.429898042507915,24.31639969055865,26.681235308715543,26.44363648588743,28.07784118130119,28.242366736531384,31.1126971813398,22.731997165244376
07_11,Raw Data\07_11\07_11_test_31.csv,,Integrated Beam Prototype 3,-0.046833 -0.046833 -0.046016 -0.046016 : 0.009751 0.009751 0.048646 0.048646 : 0.451608 0.451608 0.359203 0.359203,lo,89.0,15.0,0.0,0.0,25.0,0.0,9.0,2.254054038176331,51.28861161062099,15.097319657780314,14.663446040589408,18.718369593090763,10.922003510823291,11.76122700511424,4.749657842139104,15.109242514304992,7.9748783294099646,10.659705819631936
07_11,Raw Data\07_11\07_11_test_32.csv,,Integrated Beam Prototype 3,-0.046833 -0.046833 -0.046016 -0.046016 : 0.009751 0.009751 0.048646 0.048646 : 0.451608 0.451608 0.359203 0.359203,lo,89.0,15.0,0.0,0.0,25.0,0.0,9.0,2.254054038176331,51.28861161062099,17.560227183964372,17.886312173895536,17.43188398383347,9.584654775348309,6.114419069334187,9.780911621701742,17.144402363542856,9.120400629841296,9.954166838441752
07_11,Raw Data\07_11\07_11_test_33.csv,,Integrated Beam Prototype 3,-0.046833 -0.046833 -0.046016 -0.046016 : 0.009751 0.009751 0.048646 0.048646 : 0.451608 0.451608 0.359203 0.359203,lo,89.0,15.0,0.0,0.0,25.0,0.0,9.0,2.254054038176331,51.28861161062099,16.475222169916588,18.04656743211834,16.99385754459387,9.62329418157132,8.91200242152675,15.333078633777736,16.826347701167244,8.63414506578491,12.17271917797774
07_11,Raw Data\07_11\07_11_test_34.csv,,Integrated Beam Prototype 3,-0.046833 -0.046833 -0.046016 -0.046016 : 0.009751 0.009751 0.048646 0.048646 : 0.451608 0.451608 0.359203 0.359203,lo,89.0,15.0,0.0,0.0,25.0,0.0,9.0,2.254054038176331,51.28861161062099,13.42675494259814,15.633861255755,18.50876115552964,8.303453537879193,10.761898575158217,7.87971630108042,14.541988668064336,13.675975792055205,10.127886134294757
07_11,Raw Data\07_11\07_11_test_35.csv,,Integrated Beam Prototype 3,-0.046833 -0.046833 -0.046016 -0.046016 : 0.009751 0.009751 0.048646 0.048646 : 0.451608 0.451608 0.359203 0.359203,lo,89.0,15.0,0.0,0.0,25.0,0.0,9.0,2.254054038176331,51.28861161062099,13.640051568326136,16.05521119739505,17.39376278721289,9.029069432588264,7.903499206486344,9.52326374986086,21.29625949703141,11.338869497931697,8.700783638047726
07_11,Raw Data\07_11\07_11_test_36.csv,,Integrated Beam Prototype 3,-0.046833 -0.046833 -0.046016 -0.046016 : 0.009751 0.009751 0.048646 0.048646 : 0.451608 0.451608 0.359203 0.359203,lo,89.0,15.0,0.0,0.0,25.0,0.0,9.0,2.254054038176331,51.28861161062099,17.05242825843243,13.915361237312602,12.052840107732507,7.509334771386376,5.842906333772499,4.791443218951255,16.180588406605086,11.513308026019082,7.159142864857334
07_11,Raw Data\07_11\07_11_test_37.csv,,Integrated Beam Prototype 3,-0.046833 -0.046833 -0.046016 -0.046016 : 0.009751 0.009751 0.048646 0.048646 : 0.451608 0.451608 0.359203 0.359203,lo,89.0,15.0,0.0,0.0,25.0,0.0,9.0,2.254054038176331,51.28861161062099,16.460808788856834,18.08902344056194,16.55869315246614,9.414302420554453,6.709104453701908,10.4132620367685,15.755272553491285,8.203848708550852,10.778571055343953
07_11,Raw Data\07_11\07_11_test_38.csv,,Integrated Beam Prototype 3,-0.046833 -0.046833 -0.046016 -0.046016 : 0.009751 0.009751 0.048646 0.048646 : 0.451608 0.451608 0.359203 0.359203,lo,89.0,15.0,0.0,0.0,25.0,0.0,9.0,2.254054038176331,51.28861161062099,16.474131041734434,15.51647275798546,15.211462953471491,10.447141840368545,8.14604313200493,8.053188162978733,12.336919116304037,6.653300555690037,13.928321758607138
07_11,Raw Data\07_11\07_11_test_39.csv,,Integrated Beam Prototype 3,-0.046833 -0.046833 -0.046016 -0.046016 : 0.009751 0.009751 0.048646 0.048646 : 0.451608 0.451608 0.359203 0.359203,lo,89.0,15.0,0.0,0.0,25.0,0.0,9.0,2.254054038176331,51.28861161062099,16.92000285228464,14.871014912684478,16.285775451571723,8.591057758321279,4.520221238151407,11.797457135387951,26.39661891003303,6.091791906092686,10.875878398768844
07_11,Raw Data\07_11\07_11_test_40.csv,,Integrated Beam Prototype 3,-0.046833 -0.046833 -0.046016 -0.046016 : 0.009751 0.009751 0.048646 0.048646 : 0.451608 0.451608 0.359203 0.359203,lo,89.0,15.0,0.0,0.0,25.0,0.0,9.0,2.254054038176331,51.28861161062099,13.440673807051343,15.87483349407776,19.46372492483581,8.217239659447815,8.049232954184806,14.113185176641483,20.53170013668048,11.250588566064604,8.59447044115683
07_11,Raw Data\07_11\07_11_test_41.csv,,Integrated Beam Prototype 3,-0.046833 -0.046833 -0.046016 -0.046016 : 0.009751 0.009751 0.048646 0.048646 : 0.451608 0.451608 0.359203 0.359203,lo,89.0,15.0,0.0,0.0,25.0,0.0,9.0,2.254054038176331,51.28861161062099,17.584018673868567,17.720917455096377,20.053135455275623,11.32780786184786,6.375056467640583,5.411030051802046,23.341746273948736,8.059245034167636,8.62442464917873
07_11,Raw Data\07_11\07_11_test_42.csv,,Integrated Beam Prototype 3,-0.046833 -0.046833 -0.046016 -0.046016 : 0.009751 0.009751 0.048646 0.048646 : 0.451608 0.451608 0.359203 0.359203,lo,89.0,15.0,0.0,0.0,25.0,0.0,9.0,2.254054038176331,51.28861161062099,17.025661896553583,17.92813348489891,20.80868865445316,6.982492411839944,6.55685335331823,9.208488200408754,13.64563166849823,4.227548275927384,13.88737652105102
07_11,Raw Data\07_11\07_11_test_43.csv,,Integrated Beam Prototype 3,-0.046833 -0.046833 -0.046016 -0.046016 : 0.009751 0.009751 0.048646 0.048646 : 0.451608 0.451608 0.359203 0.359203,lo,89.0,15.0,0.0,0.0,25.0,0.0,9.0,2.254054038176331,51.28861161062099,15.14751547600962,15.5956662653874,17.014679825712257,9.772972382736157,7.384071025160184,12.788272472065906,17.46310650130495,10.751320637395468,9.502181934578994
07_11,Raw Data\07_11\07_11_test_44.csv,,Integrated Beam Prototype 3,-0.046833 -0.046833 -0.046016 -0.046016 : 0.009751 0.009751 0.048646 0.048646 : 0.451608 0.451608 0.359203 0.359203,lo,89.0,15.0,0.0,0.0,25.0,0.0,9.0,2.254054038176331,51.28861161062099,12.182519662276157,16.955613427716447,16.77240106629897,9.487790086016185,6.33727215540718,10.438709954971296,16.362336093170924,10.151776056634285,12.64200862030228
07_11,Raw Data\07_11\07_11_test_45.csv,,Integrated Beam Prototype 3,-0.046833 -0.046833 -0.046016 -0.046016 : 0.009751 0.009751 0.048646 0.048646 : 0.451608 0.451608 0.359203 0.359203,lo,89.0,15.0,0.0,0.0,25.0,0.0,9.0,2.254054038176331,51.28861161062099,14.037211562755427,14.479289547078263,19.01713333201465,8.552914150688405,8.446369716164183,8.234281408144854,24.758323778927053,11.035186962814718,12.939289310848476
