Date,File,user_note,rodney configuration,sensor calibration (k d c),stalk array (lo med hi),sensor height (cm),sensor yaw (degrees),sensor pitch (degrees),sensor roll (degrees),rate of travel (ft/min),angle of travel (degrees),sensor offset (cm to gauge 2),positionDDT_tol,forceDDT_tol,Stalk1,Stalk2,Stalk3,Stalk4,Stalk5,Stalk6,Stalk7,Stalk8,Stalk9
07_03,Raw Data\07_03\07_03_test_11.csv,,Integrated Beam Prototype 1,-0.047269 -5e-06 -0.046184 5.6e-05 : 0.009066 -1.854254 0.052102 -0.06902 : 0.280633 0.004403 0.101502 0.014988,lo,88.0,20.0,0.0,0.0,25.0,0.0,12.0,1.6262686063096805,38.212034107193006,13.238558751215884,,9.886061192672017,6.248463926173252,7.661554655142061,9.277327767085028,16.695814397012274,7.794070836007335,13.56825628577114
07_03,Raw Data\07_03\07_03_test_12.csv,,Integrated Beam Prototype 1,-0.047269 -5e-06 -0.046184 5.6e-05 : 0.009066 -1.854254 0.052102 -0.06902 : 0.280633 0.004403 0.101502 0.014988,lo,88.0,20.0,0.0,0.0,25.0,0.0,12.0,1.6262686063096805,38.212034107193006,12.9299285742563,,12.163476638809394,5.029015918857507,7.0380472120458775,12.646084615943987,12.818358847868838,6.69146110155419,10.77887362675221
07_03,Raw Data\07_03\07_03_test_13.csv,,Integrated Beam Prototype 1,-0.047269 -5e-06 -0.046184 5.6e-05 : 0.009066 -1.854254 0.052102 -0.06902 : 0.280633 0.004403 0.101502 0.014988,lo,88.0,20.0,0.0,0.0,25.0,0.0,12.0,1.6262686063096805,38.212034107193006,8.842374735999657,,11.689914998024872,7.151808112212363,5.319431133822268,4.889695468289509,14.175318930958603,7.79923683989132,14.142033098203267
07_03,Raw Data\07_03\07_03_test_14.csv,,Integrated Beam Prototype 1,-0.047269 -5e-06 -0.046184 5.6e-05 : 0.009066 -1.854254 0.052102 -0.06902 : 0.280633 0.004403 0.101502 0.014988,lo,88.0,20.0,0.0,0.0,25.0,0.0,12.0,1.6262686063096805,38.212034107193006,8.678013996016547,,14.328979367424246,4.005813058704437,5.349793887587695,6.050333729433307,10.564562334909352,5.972665846466524,12.02884467444476
07_03,Raw Data\07_03\07_03_test_15.csv,,Integrated Beam Prototype 1,-0.047269 -5e-06 -0.046184 5.6e-05 : 0.009066 -1.854254 0.052102 -0.06902 : 0.280633 0.004403 0.101502 0.014988,lo,88.0,20.0,0.0,0.0,25.0,0.0,12.0,1.6262686063096805,38.212034107193006,8.44228095933897,,16.50141235862317,4.995964938249126,8.945354737765513,7.478436079235244,8.91460737645706,7.199522908248584,11.62433523442537
07_03,Raw Data\07_03\07_03_test_16.csv,,Integrated Beam Prototype 1,-0.047269 -5e-06 -0.046184 5.6e-05 : 0.009066 -1.854254 0.052102 -0.06902 : 0.280633 0.004403 0.101502 0.014988,lo,88.0,20.0,0.0,0.0,25.0,0.0,12.0,1.6262686063096805,38.212034107193006,10.680990716929951,,10.718401870872086,6.582027281355226,4.810734854755505,5.693985166221441,10.580051160290624,6.325019382811813,11.226810871393557
07_03,Raw Data\07_03\07_03_test_17.csv,,Integrated Beam Prototype 1,-0.047269 -5e-06 -0.046184 5.6e-05 : 0.009066 -1.854254 0.052102 -0.06902 : 0.280633 0.004403 0.101502 0.014988,lo,88.0,20.0,0.0,0.0,25.0,0.0,12.0,1.6262686063096805,38.212034107193006,9.175768637449016,,11.652656193302398,8.071136999333767,8.750007427735724,6.935794271415793,12.631520391364065,5.6059293125841645,7.334376930684741
07_03,Raw Data\07_03\07_03_test_18.csv,,Integrated Beam Prototype 1,-0.047269 -5e-06 -0.046184 5.6e-05 : 0.009066 -1.854254 0.052102 -0.06902 : 0.280633 0.004403 0.101502 0.014988,lo,88.0,20.0,0.0,0.0,25.0,0.0,12.0,1.6262686063096805,38.212034107193006,9.056480649282642,,12.305158939927647,5.732606757801178,6.306051222305132,6.38564715746726,15.505038463127285,7.2043466215674,9.678166518438273
07_03,Raw Data\07_03\07_03_test_19.csv,,Integrated Beam Prototype 1,-0.047269 -5e-06 -0.046184 5.6e-05 : 0.009066 -1.854254 0.052102 -0.06902 : 0.280633 0.004403 0.101502 0.014988,lo,88.0,20.0,0.0,0.0,25.0,0.0,12.0,1.6262686063096805,38.212034107193006,14.098930482429752,,13.84683716424133,8.11233939602654,7.183331680071156,17.45325557781955,14.280040326250626,5.796285646809315,7.919521554059974
07_03,Raw Data\07_03\07_03_test_20.csv,,Integrated Beam Prototype 1,-0.047269 -5e-06 -0.046184 5.6e-05 : 0.009066 -1.854254 0.052102 -0.06902 : 0.280633 0.004403 0.101502 0.014988,lo,88.0,20.0,0.0,0.0,25.0,0.0,12.0,1.6262686063096805,38.212034107193006,9.800645634668884,,13.015589812428676,7.364674401982506,4.87619841284608,9.03370941731052,19.06082692492334,6.372345625859141,9.855129003212392
07_03,Raw Data\07_03\07_03_test_21.csv,,Integrated Beam Prototype 1,-0.047269 -5e-06 -0.046184 5.6e-05 : 0.009066 -1.854254 0.052102 -0.06902 : 0.280633 0.004403 0.101502 0.014988,med,88.0,20.0,0.0,0.0,25.0,0.0,12.0,0.7179096774909866,35.99267783820274,15.598918010219291,14.994992980513649,14.151881423669655,16.665677123216913,18.336467976599003,17.927079623837752,17.774611582198848,21.54388895222724,15.3806466751824
07_03,Raw Data\07_03\07_03_test_22.csv,,Integrated Beam Prototype 1,-0.047269 -5e-06 -0.046184 5.6e-05 : 0.009066 -1.854254 0.052102 -0.06902 : 0.280633 0.004403 0.101502 0.014988,med,88.0,20.0,0.0,0.0,25.0,0.0,12.0,0.7179096774909866,35.99267783820274,14.71877232100292,16.984375177866117,15.929998866089798,17.929307465632338,16.59515828854633,20.43907081394412,16.548219576749744,17.61936972791202,17.54424983677528
07_03,Raw Data\07_03\07_03_test_23.csv,,Integrated Beam Prototype 1,-0.047269 -5e-06 -0.046184 5.6e-05 : 0.009066 -1.854254 0.052102 -0.06902 : 0.280633 0.004403 0.101502 0.014988,med,88.0,20.0,0.0,0.0,25.0,0.0,12.0,0.7179096774909866,35.99267783820274,15.573099277047053,14.734615199122072,15.145716085443198,17.903445129165327,14.978371455632969,17.604633135348777,18.371960561949862,18.13679115683953,15.431753871710889
07_03,Raw Data\07_03\07_03_test_24.csv,,Integrated Beam Prototype 1,-0.047269 -5e-06 -0.046184 5.6e-05 : 0.009066 -1.854254 0.052102 -0.06902 : 0.280633 0.004403 0.101502 0.014988,med,88.0,20.0,0.0,0.0,25.0,0.0,12.0,0.7179096774909866,35.99267783820274,16.475573050918076,16.424012828609428,14.245209100703551,22.05727380309924,19.478369613126777,17.322024134216566,18.06868377199544,19.63632159223785,15.832342113128677
07_03,Raw Data\07_03\07_03_test_25.csv,,Integrated Beam Prototype 1,-0.047269 -5e-06 -0.046184 5.6e-05 : 0.009066 -1.854254 0.052102 -0.06902 : 0.280633 0.004403 0.101502 0.014988,med,88.0,20.0,0.0,0.0,25.0,0.0,12.0,0.7179096774909866,35.99267783820274,15.328336526562598,15.09154473534299,16.946742350885636,18.63634795153079,17.779237204139857,14.925974190173662,17.837863292669123,16.89045095945806,16.06782888711544
07_03,Raw Data\07_03\07_03_test_26.csv,,Integrated Beam Prototype 1,-0.047269 -5e-06 -0.046184 5.6e-05 : 0.009066 -1.854254 0.052102 -0.06902 : 0.280633 0.004403 0.101502 0.014988,med,88.0,20.0,0.0,0.0,25.0,0.0,12.0,0.7179096774909866,35.99267783820274,15.6437344074322,15.573614136222137,14.458038126239376,17.118844622768677,17.480362102844364,15.589664416371503,15.754451698194783,16.01200104408954,12.772832836962625
07_03,Raw Data\07_03\07_03_test_27.csv,,Integrated Beam Prototype 1,-0.047269 -5e-06 -0.046184 5.6e-05 : 0.009066 -1.854254 0.052102 -0.06902 : 0.280633 0.004403 0.101502 0.014988,med,88.0,20.0,0.0,0.0,25.0,0.0,12.0,0.7179096774909866,35.99267783820274,16.76658212021419,17.966969030117678,15.426707417947854,18.52894523454166,16.656905743174182,15.574965450401525,17.299281891556113,18.90846272072228,12.828786901883833
07_03,Raw Data\07_03\07_03_test_28.csv,,Integrated Beam Prototype 1,-0.047269 -5e-06 -0.046184 5.6e-05 : 0.009066 -1.854254 0.052102 -0.06902 : 0.280633 0.004403 0.101502 0.014988,med,88.0,20.0,0.0,0.0,25.0,0.0,12.0,0.7179096774909866,35.99267783820274,16.31025788124702,17.67869544834746,14.528331070872945,19.25686506492596,17.539088563123908,18.737220570053463,17.710565046106872,21.99137222985044,15.540068672199991
07_03,Raw Data\07_03\07_03_test_29.csv,,Integrated Beam Prototype 1,-0.047269 -5e-06 -0.046184 5.6e-05 : 0.009066 -1.854254 0.052102 -0.06902 : 0.280633 0.004403 0.101502 0.014988,med,88.0,20.0,0.0,0.0,25.0,0.0,12.0,0.7179096774909866,35.99267783820274,15.85761860580782,15.880683294885024,16.96766698243629,17.889710124272174,16.783028444909807,17.72886353262566,16.488795450450827,20.322958796052347,15.9099783592794
07_03,Raw Data\07_03\07_03_test_30.csv,,Integrated Beam Prototype 1,-0.047269 -5e-06 -0.046184 5.6e-05 : 0.009066 -1.854254 0.052102 -0.06902 : 0.280633 0.004403 0.101502 0.014988,med,88.0,20.0,0.0,0.0,25.0,0.0,12.0,0.7179096774909866,35.99267783820274,14.779496268138844,16.743069394577738,15.42306000704047,19.008920054617363,16.575809196180884,15.75641395294224,15.27084110180772,16.841246251676164,16.070874091102898
07_03,Raw Data\07_03\07_03_test_31.csv,,Integrated Beam Prototype 1,-0.047269 -5e-06 -0.046184 5.6e-05 : 0.009066 -1.854254 0.052102 -0.06902 : 0.280633 0.004403 0.101502 0.014988,hi,88.0,20.0,0.0,0.0,25.0,0.0,12.0,0.6267649963645728,40.32757635519,25.53511328507,21.978238594463345,20.6505096156662,27.66040415257612,26.24402337713789,27.05461414402239,28.27837393585332,28.79306273975563,25.80981086128573
07_03,Raw Data\07_03\07_03_test_32.csv,,Integrated Beam Prototype 1,-0.047269 -5e-06 -0.046184 5.6e-05 : 0.009066 -1.854254 0.052102 -0.06902 : 0.280633 0.004403 0.101502 0.014988,hi,88.0,20.0,0.0,0.0,25.0,0.0,12.0,0.6267649963645728,40.32757635519,27.553611474208225,23.4243690770893,21.88943031428989,26.570184613414984,26.4587313570723,29.78537529300375,27.38891628223917,28.09023833533709,26.81304457914094
07_03,Raw Data\07_03\07_03_test_33.csv,,Integrated Beam Prototype 1,-0.047269 -5e-06 -0.046184 5.6e-05 : 0.009066 -1.854254 0.052102 -0.06902 : 0.280633 0.004403 0.101502 0.014988,hi,88.0,20.0,0.0,0.0,25.0,0.0,12.0,0.6267649963645728,40.32757635519,28.40894083369875,23.01670273073125,24.07405532855089,27.884665391161324,28.44203564320389,25.91593042562697,27.90086638008565,26.258520571305866,25.446022463850085
07_03,Raw Data\07_03\07_03_test_34.csv,,Integrated Beam Prototype 1,-0.047269 -5e-06 -0.046184 5.6e-05 : 0.009066 -1.854254 0.052102 -0.06902 : 0.280633 0.004403 0.101502 0.014988,hi,88.0,20.0,0.0,0.0,25.0,0.0,12.0,0.6267649963645728,40.32757635519,27.20561536889209,25.27208704424925,22.44465948511932,28.67575446961426,28.124821120910315,28.19025766013398,26.76436801083973,27.575500581796263,24.56161218267941
07_03,Raw Data\07_03\07_03_test_35.csv,,Integrated Beam Prototype 1,-0.047269 -5e-06 -0.046184 5.6e-05 : 0.009066 -1.854254 0.052102 -0.06902 : 0.280633 0.004403 0.101502 0.014988,hi,88.0,20.0,0.0,0.0,25.0,0.0,12.0,0.6267649963645728,40.32757635519,27.00225440751413,25.107685020724443,22.78979367102032,30.599844899464443,26.078786732609423,26.88417887117384,28.0963838035641,27.261927705233475,26.775571987785163
07_03,Raw Data\07_03\07_03_test_36.csv,,Integrated Beam Prototype 1,-0.047269 -5e-06 -0.046184 5.6e-05 : 0.009066 -1.854254 0.052102 -0.06902 : 0.280633 0.004403 0.101502 0.014988,hi,88.0,20.0,0.0,0.0,25.0,0.0,12.0,0.6267649963645728,40.32757635519,29.88136002073045,23.517758616178213,21.975488369638573,29.143345936430425,25.91123069749644,31.14024802960191,27.03619723891768,27.94416119426189,27.54533041783257
07_03,Raw Data\07_03\07_03_test_37.csv,,Integrated Beam Prototype 1,-0.047269 -5e-06 -0.046184 5.6e-05 : 0.009066 -1.854254 0.052102 -0.06902 : 0.280633 0.004403 0.101502 0.014988,hi,88.0,20.0,0.0,0.0,25.0,0.0,12.0,0.6267649963645728,40.32757635519,24.224059551503064,19.90926953293351,21.29842379468579,25.21771900437805,24.869518553416587,25.329323667221523,25.211406040642064,28.87517139039026,29.09744603680391
07_03,Raw Data\07_03\07_03_test_38.csv,,Integrated Beam Prototype 1,-0.047269 -5e-06 -0.046184 5.6e-05 : 0.009066 -1.854254 0.052102 -0.06902 : 0.280633 0.004403 0.101502 0.014988,hi,88.0,20.0,0.0,0.0,25.0,0.0,12.0,0.6267649963645728,40.32757635519,29.092798870225707,24.6520067831088,22.85594167779305,26.25584617414697,26.0604574536517,28.0981636916347,28.69504150220368,30.98536904719907,23.21084253624878
07_03,Raw Data\07_03\07_03_test_39.csv,,Integrated Beam Prototype 1,-0.047269 -5e-06 -0.046184 5.6e-05 : 0.009066 -1.854254 0.052102 -0.06902 : 0.280633 0.004403 0.101502 0.014988,hi,88.0,20.0,0.0,0.0,25.0,0.0,12.0,0.6267649963645728,40.32757635519,29.412912793924683,23.9151358615946,22.36402230655352,26.330814259439748,27.230593022042648,26.277870330909828,25.825570804485267,27.718871244705305,27.67264338920181
07_03,Raw Data\07_03\07_03_test_40.csv,,Integrated Beam Prototype 1,-0.047269 -5e-06 -0.046184 5.6e-05 : 0.009066 -1.854254 0.052102 -0.06902 : 0.280633 0.004403 0.101502 0.014988,hi,88.0,20.0,0.0,0.0,25.0,0.0,12.0,0.6267649963645728,40.32757635519,28.10299707157133,24.772647235051615,25.21173590708158,28.208379560951563,27.178015929506987,26.097169629859074,24.748132293448876,26.53294518984685,24.39673908095574
07_10,Raw Data\07_10\07_10_test_1.csv,,Integrated Beam Prototype 2,-0.046833 -0.046833 -0.046016 -0.046016 : 0.009751 0.009751 0.048646 0.048646 : 0.451608 0.451608 0.359203 0.359203,hi,88.9,20.0,0.0,0.0,25.0,0.0,7.5,0.6000000000000001,42.50000001,35.715086682668414,30.039850894920125,31.15804151361688,37.36240836631594,35.19786331276373,35.21773185650264,34.44338588681966,33.75141562947923,29.6184349372912
07_10,Raw Data\07_10\07_10_test_10.csv,,Integrated Beam Prototype 2,-0.046833 -0.046833 -0.046016 -0.046016 : 0.009751 0.009751 0.048646 0.048646 : 0.451608 0.451608 0.359203 0.359203,hi,88.9,20.0,0.0,0.0,25.0,0.0,7.5,0.6000000000000001,42.50000001,31.91343385472671,32.181901775163055,28.71333271552345,35.693523095058595,36.07797283847481,36.87156962147283,36.704153239737295,29.270836484210484,30.463700069052614
07_10,Raw Data\07_10\07_10_test_11.csv,,Integrated Beam Prototype 2,-0.046833 -0.046833 -0.046016 -0.046016 : 0.009751 0.009751 0.048646 0.048646 : 0.451608 0.451608 0.359203 0.359203,hi,88.9,20.0,0.0,0.0,25.0,0.0,7.5,0.6000000000000001,42.50000001,35.53424335141123,31.275373418551244,31.06704236654449,30.16431495948484,36.68636241922266,38.52786761250755,35.601216560097214,30.83753916387687,32.53562204823938
07_10,Raw Data\07_10\07_10_test_12.csv,,Integrated Beam Prototype 2,-0.046833 -0.046833 -0.046016 -0.046016 : 0.009751 0.009751 0.048646 0.048646 : 0.451608 0.451608 0.359203 0.359203,hi,88.9,20.0,0.0,0.0,25.0,0.0,7.5,0.6000000000000001,42.50000001,34.77226893788922,34.41951375278373,28.60505544756968,33.90406428079583,33.038142751157935,38.88610706958914,34.95691864985677,33.05704261898302,28.180969583999016
07_10,Raw Data\07_10\07_10_test_13.csv,,Integrated Beam Prototype 2,-0.046833 -0.046833 -0.046016 -0.046016 : 0.009751 0.009751 0.048646 0.048646 : 0.451608 0.451608 0.359203 0.359203,hi,88.9,20.0,0.0,0.0,25.0,0.0,7.5,0.6000000000000001,42.50000001,35.98553930414864,28.710258250008188,33.162008371488085,37.28943321012872,33.036343670458365,37.50660225047665,30.65876080260913,34.0721443696349,31.94803945711128
07_10,Raw Data\07_10\07_10_test_14.csv,,Integrated Beam Prototype 2,-0.046833 -0.046833 -0.046016 -0.046016 : 0.009751 0.009751 0.048646 0.048646 : 0.451608 0.451608 0.359203 0.359203,hi,88.9,20.0,0.0,0.0,25.0,0.0,7.5,0.6000000000000001,42.50000001,33.913565281576005,28.85044924013484,31.49634768354044,40.282607613215056,34.87817298493081,33.840457971906496,37.70696522838544,32.13320171966282,28.99661744052254
07_10,Raw Data\07_10\07_10_test_15.csv,,Integrated Beam Prototype 2,-0.046833 -0.046833 -0.046016 -0.046016 : 0.009751 0.009751 0.048646 0.048646 : 0.451608 0.451608 0.359203 0.359203,hi,88.9,20.0,0.0,0.0,25.0,0.0,7.5,0.6000000000000001,42.50000001,35.58943208700843,33.290732525324394,32.668481015909215,34.017078227109025,36.75748461625896,37.552273386799484,32.2048016106071,27.33588240599704,32.9805998378188
07_10,Raw Data\07_10\07_10_test_16.csv,,Integrated Beam Prototype 2,-0.046833 -0.046833 -0.046016 -0.046016 : 0.009751 0.009751 0.048646 0.048646 : 0.451608 0.451608 0.359203 0.359203,med,89.0,20.0,0.0,0.0,25.0,0.0,9.0,0.6000000000000001,37.5,21.48489981462084,19.416483815657024,21.320771624700008,26.200806580006105,24.5298762527663,24.505330992063968,25.714682931300523,25.84604732417368,24.18838885597578
07_10,Raw Data\07_10\07_10_test_17.csv,,Integrated Beam Prototype 2,-0.046833 -0.046833 -0.046016 -0.046016 : 0.009751 0.009751 0.048646 0.048646 : 0.451608 0.451608 0.359203 0.359203,med,89.0,20.0,0.0,0.0,25.0,0.0,9.0,0.6000000000000001,37.5,21.664592618174723,20.72519962961612,22.07136668166345,24.753385223341347,21.93481713152632,23.55783230962288,24.498978500020844,25.129695139976786,20.39796127276373
07_10,Raw Data\07_10\07_10_test_18.csv,,Integrated Beam Prototype 2,-0.046833 -0.046833 -0.046016 -0.046016 : 0.009751 0.009751 0.048646 0.048646 : 0.451608 0.451608 0.359203 0.359203,med,89.0,20.0,0.0,0.0,25.0,0.0,9.0,0.6000000000000001,37.5,19.966224737280925,20.95763219049961,19.005374463575336,25.94466197339609,25.10050821483634,26.63809817622703,22.040379132651506,27.123346281563474,22.78102947006652
07_10,Raw Data\07_10\07_10_test_19.csv,,Integrated Beam Prototype 2,-0.046833 -0.046833 -0.046016 -0.046016 : 0.009751 0.009751 0.048646 0.048646 : 0.451608 0.451608 0.359203 0.359203,med,89.0,20.0,0.0,0.0,25.0,0.0,9.0,0.6000000000000001,37.5,17.764557402393226,19.280466945219743,20.13417911981979,23.242686413470583,23.212037930656404,24.04460280257303,22.950384056206943,25.30644909889505,24.165141244983964
07_10,Raw Data\07_10\07_10_test_2.csv,,Integrated Beam Prototype 2,-0.046833 -0.046833 -0.046016 -0.046016 : 0.009751 0.009751 0.048646 0.048646 : 0.451608 0.451608 0.359203 0.359203,hi,88.9,20.0,0.0,0.0,25.0,0.0,7.5,0.6000000000000001,42.50000001,31.30483839820312,32.02470046615757,34.38843402094764,37.603106926692064,37.133863749072944,33.66398229212899,34.49991819390772,28.48990961750029,30.54618227064658
07_10,Raw Data\07_10\07_10_test_20.csv,,Integrated Beam Prototype 2,-0.046833 -0.046833 -0.046016 -0.046016 : 0.009751 0.009751 0.048646 0.048646 : 0.451608 0.451608 0.359203 0.359203,med,89.0,20.0,0.0,0.0,25.0,0.0,9.0,0.6000000000000001,37.5,19.679971885906664,19.421999099605177,19.50129472634089,21.645933680527023,24.452827962863008,23.04474501938213,22.31703023578405,24.162138692396475,20.6871088925966
07_10,Raw Data\07_10\07_10_test_21.csv,,Integrated Beam Prototype 2,-0.046833 -0.046833 -0.046016 -0.046016 : 0.009751 0.009751 0.048646 0.048646 : 0.451608 0.451608 0.359203 0.359203,med,89.0,20.0,0.0,0.0,25.0,0.0,9.0,0.6000000000000001,37.5,25.71295532434061,19.26061528997873,20.475286973877488,23.74965076051668,23.62077269995892,25.439130052861618,25.019353552126987,21.395997891333483,19.103206524859083
07_10,Raw Data\07_10\07_10_test_22.csv,,Integrated Beam Prototype 2,-0.046833 -0.046833 -0.046016 -0.046016 : 0.009751 0.009751 0.048646 0.048646 : 0.451608 0.451608 0.359203 0.359203,med,89.0,20.0,0.0,0.0,25.0,0.0,9.0,0.6000000000000001,37.5,21.222661611486785,18.51018626306977,18.440806550273752,25.04314403309792,22.94949760889665,22.59388130388102,20.038058452032605,25.745184521549408,23.2828878162536
07_10,Raw Data\07_10\07_10_test_23.csv,,Integrated Beam Prototype 2,-0.046833 -0.046833 -0.046016 -0.046016 : 0.009751 0.009751 0.048646 0.048646 : 0.451608 0.451608 0.359203 0.359203,med,89.0,20.0,0.0,0.0,25.0,0.0,9.0,0.6000000000000001,37.5,18.13348052051049,20.712429295098808,20.9059414269016,25.675574094214674,22.622663005013187,22.257904086625537,22.80118721662564,22.657844586973287,22.7807045648348
07_10,Raw Data\07_10\07_10_test_24.csv,,Integrated Beam Prototype 2,-0.046833 -0.046833 -0.046016 -0.046016 : 0.009751 0.009751 0.048646 0.048646 : 0.451608 0.451608 0.359203 0.359203,med,89.0,20.0,0.0,0.0,25.0,0.0,9.0,0.6000000000000001,37.5,21.36437505563866,18.70405937755266,19.67723312810905,24.737876349418777,23.389946452210125,23.99271121710836,19.789129360501743,24.809686789419963,23.79974424814872
07_10,Raw Data\07_10\07_10_test_25.csv,,Integrated Beam Prototype 2,-0.046833 -0.046833 -0.046016 -0.046016 : 0.009751 0.009751 0.048646 0.048646 : 0.451608 0.451608 0.359203 0.359203,med,89.0,20.0,0.0,0.0,25.0,0.0,9.0,0.6000000000000001,37.5,22.623899245088428,19.36156397786577,19.01338459349559,24.99453939463452,22.19116762838138,22.85758622716364,21.402470093931083,25.23167470648158,18.96744075619792
07_10,Raw Data\07_10\07_10_test_26.csv,,Integrated Beam Prototype 2,-0.046833 -0.046833 -0.046016 -0.046016 : 0.009751 0.009751 0.048646 0.048646 : 0.451608 0.451608 0.359203 0.359203,med,89.0,20.0,0.0,0.0,25.0,0.0,9.0,0.6000000000000001,37.5,20.043617859225453,19.17474390074773,19.61617276966864,25.397881943181662,23.769741054323298,25.602521982687577,21.42514999227908,24.09703392588752,21.70924240658948
07_10,Raw Data\07_10\07_10_test_27.csv,,Integrated Beam Prototype 2,-0.046833 -0.046833 -0.046016 -0.046016 : 0.009751 0.009751 0.048646 0.048646 : 0.451608 0.451608 0.359203 0.359203,med,89.0,20.0,0.0,0.0,25.0,0.0,9.0,0.6000000000000001,37.5,21.305976026220225,21.595113287190184,20.63530279555326,25.23671035138732,21.726765522990053,25.0896683113302,21.24218765032038,24.57268175392112,21.38617318715721
07_10,Raw Data\07_10\07_10_test_28.csv,,Integrated Beam Prototype 2,-0.046833 -0.046833 -0.046016 -0.046016 : 0.009751 0.009751 0.048646 0.048646 : 0.451608 0.451608 0.359203 0.359203,med,89.0,20.0,0.0,0.0,25.0,0.0,9.0,0.6000000000000001,37.5,20.44235351753474,20.663337918037733,20.3806830306191,25.801946698064206,23.829131287888867,21.6233034344928,22.934574065750105,24.451447676364744,22.16319352776204
07_10,Raw Data\07_10\07_10_test_29.csv,,Integrated Beam Prototype 2,-0.046833 -0.046833 -0.046016 -0.046016 : 0.009751 0.009751 0.048646 0.048646 : 0.451608 0.451608 0.359203 0.359203,med,89.0,20.0,0.0,0.0,25.0,0.0,9.0,0.6000000000000001,37.5,23.76740628340527,21.930881487225683,19.147922715689177,27.466746789812618,20.03121808005837,24.985979347476302,21.105869207113464,23.68500169913672,20.422265967993635
07_10,Raw Data\07_10\07_10_test_3.csv,,Integrated Beam Prototype 2,-0.046833 -0.046833 -0.046016 -0.046016 : 0.009751 0.009751 0.048646 0.048646 : 0.451608 0.451608 0.359203 0.359203,hi,88.9,20.0,0.0,0.0,25.0,0.0,7.5,0.6000000000000001,42.50000001,34.42120794711655,29.73148226237787,30.585726818,34.214936815144284,39.09590331950152,38.977771558268586,34.5107278430855,27.67774840738699,30.504287880816687
07_10,Raw Data\07_10\07_10_test_30.csv,,Integrated Beam Prototype 2,-0.046833 -0.046833 -0.046016 -0.046016 : 0.009751 0.009751 0.048646 0.048646 : 0.451608 0.451608 0.359203 0.359203,med,89.0,20.0,0.0,0.0,25.0,0.0,9.0,0.6000000000000001,37.5,20.496034766824312,22.037716154719625,16.655407206642398,23.970173245966564,22.569103901034698,22.583364656308937,23.14972980100861,22.69639161531559,18.293394025639365
07_10,Raw Data\07_10\07_10_test_31.csv,,Integrated Beam Prototype 2,-0.046833 -0.046833 -0.046016 -0.046016 : 0.009751 0.009751 0.048646 0.048646 : 0.451608 0.451608 0.359203 0.359203,lo,89.0,20.0,0.0,0.0,25.0,0.0,9.5,1.25,35.0,16.675566521256776,15.647723864317475,14.76766686584256,8.177525002009336,4.283811050329723,5.302464842084249,13.509296690959191,7.766712125159517,8.552542532576227
07_10,Raw Data\07_10\07_10_test_32.csv,,Integrated Beam Prototype 2,-0.046833 -0.046833 -0.046016 -0.046016 : 0.009751 0.009751 0.048646 0.048646 : 0.451608 0.451608 0.359203 0.359203,lo,89.0,20.0,0.0,0.0,25.0,0.0,9.5,1.25,35.0,14.366457499134215,18.602760388755083,18.326281259123625,7.527632445655383,4.28904163193078,8.020490509741284,18.208484909522955,8.13888836105784,12.36169100551702
07_10,Raw Data\07_10\07_10_test_33.csv,,Integrated Beam Prototype 2,-0.046833 -0.046833 -0.046016 -0.046016 : 0.009751 0.009751 0.048646 0.048646 : 0.451608 0.451608 0.359203 0.359203,lo,89.0,20.0,0.0,0.0,25.0,0.0,9.5,1.25,35.0,14.97317220632575,17.574185455075202,20.236371185803016,7.33328862718958,7.286884159502966,11.979035446329153,15.158595513615596,9.504056455462113,10.159208882999115
07_10,Raw Data\07_10\07_10_test_34.csv,,Integrated Beam Prototype 2,-0.046833 -0.046833 -0.046016 -0.046016 : 0.009751 0.009751 0.048646 0.048646 : 0.451608 0.451608 0.359203 0.359203,lo,89.0,20.0,0.0,0.0,25.0,0.0,9.5,1.25,35.0,13.285049748753057,19.768388979303875,15.305407713068815,8.488106551660504,5.037433962144549,8.83355703987503,22.45220266346046,5.913071077552463,10.226204268182666
07_10,Raw Data\07_10\07_10_test_35.csv,,Integrated Beam Prototype 2,-0.046833 -0.046833 -0.046016 -0.046016 : 0.009751 0.009751 0.048646 0.048646 : 0.451608 0.451608 0.359203 0.359203,lo,89.0,20.0,0.0,0.0,25.0,0.0,9.5,1.25,35.0,16.322731047919287,14.059533157165404,17.958104360605496,6.5605460106908575,5.826018488173816,12.36535606259984,21.968334385769268,7.805722244017899,10.580179354081558
07_10,Raw Data\07_10\07_10_test_36.csv,,Integrated Beam Prototype 2,-0.046833 -0.046833 -0.046016 -0.046016 : 0.009751 0.009751 0.048646 0.048646 : 0.451608 0.451608 0.359203 0.359203,lo,89.0,20.0,0.0,0.0,25.0,0.0,9.5,1.25,35.0,14.737128692866088,16.413475243230376,14.919723581630786,8.569741079894596,11.918901408855008,9.200031596734398,29.323551255935147,6.665268538555058,13.85149635199098
07_10,Raw Data\07_10\07_10_test_37.csv,,Integrated Beam Prototype 2,-0.046833 -0.046833 -0.046016 -0.046016 : 0.009751 0.009751 0.048646 0.048646 : 0.451608 0.451608 0.359203 0.359203,lo,89.0,20.0,0.0,0.0,25.0,0.0,9.5,1.25,35.0,14.896743367262738,14.669288030614196,15.636079896467336,9.408022644992863,7.154199769019329,4.575896242171554,22.74451755902168,7.728671657986567,9.313419011499748
07_10,Raw Data\07_10\07_10_test_38.csv,,Integrated Beam Prototype 2,-0.046833 -0.046833 -0.046016 -0.046016 : 0.009751 0.009751 0.048646 0.048646 : 0.451608 0.451608 0.359203 0.359203,lo,89.0,20.0,0.0,0.0,25.0,0.0,9.5,1.25,35.0,13.87820439006314,13.54615604155072,21.06379410423708,11.168343690900253,6.518661319526797,8.833625245346267,21.96514879733958,7.046627126287639,9.419449691460969
07_10,Raw Data\07_10\07_10_test_39.csv,,Integrated Beam Prototype 2,-0.046833 -0.046833 -0.046016 -0.046016 : 0.009751 0.009751 0.048646 0.048646 : 0.451608 0.451608 0.359203 0.359203,lo,89.0,20.0,0.0,0.0,25.0,0.0,9.5,1.25,35.0,15.130368703423974,14.742103216166791,18.29424060766293,6.927944389537278,7.635903035138837,8.485784738953916,22.725902082100195,8.487127248566004,11.316647409755562
07_10,Raw Data\07_10\07_10_test_4.csv,,Integrated Beam Prototype 2,-0.046833 -0.046833 -0.046016 -0.046016 : 0.009751 0.009751 0.048646 0.048646 : 0.451608 0.451608 0.359203 0.359203,hi,88.9,20.0,0.0,0.0,25.0,0.0,7.5,0.6000000000000001,42.50000001,33.76898195341345,27.995052223589425,33.15793043646761,32.904215739467915,35.03274605876624,36.0938151025196,32.5684772844286,28.74462044025657,29.19922412005737
07_10,Raw Data\07_10\07_10_test_40.csv,,Integrated Beam Prototype 2,-0.046833 -0.046833 -0.046016 -0.046016 : 0.009751 0.009751 0.048646 0.048646 : 0.451608 0.451608 0.359203 0.359203,lo,89.0,20.0,0.0,0.0,25.0,0.0,9.5,1.25,35.0,15.60024328574385,14.643426689836444,16.462128704879706,9.814239162239623,8.084641332652952,9.489928579814382,23.78565614255736,9.582582245341223,12.808669834177806
07_10,Raw Data\07_10\07_10_test_41.csv,,Integrated Beam Prototype 2,-0.046833 -0.046833 -0.046016 -0.046016 : 0.009751 0.009751 0.048646 0.048646 : 0.451608 0.451608 0.359203 0.359203,lo,89.0,20.0,0.0,0.0,25.0,0.0,9.5,1.25,35.0,14.608276183712611,16.682873470070387,16.21818624291447,7.74232620133997,6.9242808592269,9.444236416154888,24.211033620692785,10.169358483805263,11.454990794722455
07_10,Raw Data\07_10\07_10_test_42.csv,,Integrated Beam Prototype 2,-0.046833 -0.046833 -0.046016 -0.046016 : 0.009751 0.009751 0.048646 0.048646 : 0.451608 0.451608 0.359203 0.359203,lo,89.0,20.0,0.0,0.0,25.0,0.0,9.5,1.25,35.0,13.837913419807157,15.460573802346516,18.055232809795697,7.958590963849981,5.600305955760295,7.8456302886244735,22.487735799612,8.541855009722836,10.576938352090712
07_10,Raw Data\07_10\07_10_test_43.csv,,Integrated Beam Prototype 2,-0.046833 -0.046833 -0.046016 -0.046016 : 0.009751 0.009751 0.048646 0.048646 : 0.451608 0.451608 0.359203 0.359203,lo,89.0,20.0,0.0,0.0,25.0,0.0,9.5,1.25,35.0,12.800101893803305,15.90021875593142,18.07190825927246,8.451068144194444,6.850950286146037,6.776631876257,17.668086635867724,8.291961442556504,11.53800266806767
07_10,Raw Data\07_10\07_10_test_44.csv,,Integrated Beam Prototype 2,-0.046833 -0.046833 -0.046016 -0.046016 : 0.009751 0.009751 0.048646 0.048646 : 0.451608 0.451608 0.359203 0.359203,lo,89.0,20.0,0.0,0.0,25.0,0.0,9.5,1.25,35.0,15.251333975829418,14.47700804964049,18.699858448550543,7.409147297980176,7.2543205549414465,9.52298786493059,24.50191563324336,7.365991064521088,10.054725531100916
07_10,Raw Data\07_10\07_10_test_45.csv,,Integrated Beam Prototype 2,-0.046833 -0.046833 -0.046016 -0.046016 : 0.009751 0.009751 0.048646 0.048646 : 0.451608 0.451608 0.359203 0.359203,lo,89.0,20.0,0.0,0.0,25.0,0.0,9.5,1.25,35.0,14.821108694083902,14.545685923575798,14.971063297698672,8.076642774768706,8.141482201014083,9.798276079782523,24.68593063427437,9.527704245911712,13.115799701987138
07_10,Raw Data\07_10\07_10_test_5.csv,,Integrated Beam Prototype 2,-0.046833 -0.046833 -0.046016 -0.046016 : 0.009751 0.009751 0.048646 0.048646 : 0.451608 0.451608 0.359203 0.359203,hi,88.9,20.0,0.0,0.0,25.0,0.0,7.5,0.6000000000000001,42.50000001,37.30807512821523,30.930658924808647,32.3155016307779,34.13384112238656,33.99351858771181,38.729495331423415,34.742269379793896,37.6333328380212,34.940230551222164
07_10,Raw Data\07_10\07_10_test_6.csv,,Integrated Beam Prototype 2,-0.046833 -0.046833 -0.046016 -0.046016 : 0.009751 0.009751 0.048646 0.048646 : 0.451608 0.451608 0.359203 0.359203,hi,88.9,20.0,0.0,0.0,25.0,0.0,7.5,0.6000000000000001,42.50000001,31.41231133410852,29.337745713304702,32.462780030029805,32.02661413792075,35.185426410489924,34.437117958132106,32.95647907197424,28.792498170399465,32.19184705544699
07_10,Raw Data\07_10\07_10_test_7.csv,,Integrated Beam Prototype 2,-0.046833 -0.046833 -0.046016 -0.046016 : 0.009751 0.009751 0.048646 0.048646 : 0.451608 0.451608 0.359203 0.359203,hi,88.9,20.0,0.0,0.0,25.0,0.0,7.5,0.6000000000000001,42.50000001,34.402189024386885,28.85695876949513,34.57213070518555,32.330569757084625,33.85312786429395,35.876014525696746,31.836807732989268,28.60092708787877,34.05117031160513
07_10,Raw Data\07_10\07_10_test_8.csv,,Integrated Beam Prototype 2,-0.046833 -0.046833 -0.046016 -0.046016 : 0.009751 0.009751 0.048646 0.048646 : 0.451608 0.451608 0.359203 0.359203,hi,88.9,20.0,0.0,0.0,25.0,0.0,7.5,0.6000000000000001,42.50000001,34.308494401714604,29.75615575492118,28.35540283629508,36.80256221625066,34.19068387274462,35.73136426673524,34.315872294230964,27.651121698998992,31.51785784705292
07_10,Raw Data\07_10\07_10_test_9.csv,,Integrated Beam Prototype 2,-0.046833 -0.046833 -0.046016 -0.046016 : 0.009751 0.009751 0.048646 0.048646 : 0.451608 0.451608 0.359203 0.359203,hi,88.9,20.0,0.0,0.0,25.0,0.0,7.5,0.6000000000000001,42.50000001,36.3088737414469,27.89674493836568,31.849360227357057,35.926427057629105,35.20002788274189,34.81095830484462,33.13022269426677,30.10510336698441,35.656626930286265
07_10,Raw Data\07_10\07_10_test_101.csv,,Integrated Beam Prototype 3,-0.046833 -0.046833 -0.046016 -0.046016 : 0.009751 0.009751 0.048646 0.048646 : 0.451608 0.451608 0.359203 0.359203,lo,89.0,15.0,0.0,0.0,25.0,0.0,9.5,1.25,35.0,20.6354747353118,17.342579603239145,18.318690121477083,11.979700135315149,2.641434800953019,10.172568003101796,14.963595470607908,9.286094133956457,16.232331596844435
07_10,Raw Data\07_10\07_10_test_102.csv,,Integrated Beam Prototype 3,-0.046833 -0.046833 -0.046016 -0.046016 : 0.009751 0.009751 0.048646 0.048646 : 0.451608 0.451608 0.359203 0.359203,lo,89.0,15.0,0.0,0.0,25.0,0.0,9.5,1.25,35.0,19.755776507873566,20.481844641704207,19.56910394525133,10.535769096265058,11.848729105858888,7.791264659973611,26.139277154330504,9.01946124293103,12.622692014729694
07_10,Raw Data\07_10\07_10_test_103.csv,,Integrated Beam Prototype 3,-0.046833 -0.046833 -0.046016 -0.046016 : 0.009751 0.009751 0.048646 0.048646 : 0.451608 0.451608 0.359203 0.359203,lo,89.0,15.0,0.0,0.0,25.0,0.0,9.5,1.25,35.0,13.98108916010178,17.651450548366174,28.95027922485321,11.810424963285325,7.158151934295625,6.532104035448093,21.290759759583192,13.0861106146345,8.378657051962623
07_10,Raw Data\07_10\07_10_test_104.csv,,Integrated Beam Prototype 3,-0.046833 -0.046833 -0.046016 -0.046016 : 0.009751 0.009751 0.048646 0.048646 : 0.451608 0.451608 0.359203 0.359203,lo,89.0,15.0,0.0,0.0,25.0,0.0,9.5,1.25,35.0,16.92340980564175,16.87330420815284,21.82414620564563,6.616255633321479,8.226404703649136,5.920165509194184,33.38299126782468,8.262495470840374,11.140780546669337
07_10,Raw Data\07_10\07_10_test_105.csv,,Integrated Beam Prototype 3,-0.046833 -0.046833 -0.046016 -0.046016 : 0.009751 0.009751 0.048646 0.048646 : 0.451608 0.451608 0.359203 0.359203,lo,89.0,15.0,0.0,0.0,25.0,0.0,9.5,1.25,35.0,19.84904007505769,21.15998337676496,23.770382939224582,11.025727640976418,7.493894534131186,7.130107112524831,15.464248943353322,6.603185487317912,12.856455715255343
07_10,Raw Data\07_10\07_10_test_106.csv,,Integrated Beam Prototype 3,-0.046833 -0.046833 -0.046016 -0.046016 : 0.009751 0.009751 0.048646 0.048646 : 0.451608 0.451608 0.359203 0.359203,lo,89.0,15.0,0.0,0.0,25.0,0.0,9.5,1.25,35.0,18.8338907943779,18.86806456117244,17.455577731935634,10.608994169057286,7.377808439586278,6.814199974278362,15.82216603236246,9.586734035937123,16.575645401949867
07_10,Raw Data\07_10\07_10_test_107.csv,,Integrated Beam Prototype 3,-0.046833 -0.046833 -0.046016 -0.046016 : 0.009751 0.009751 0.048646 0.048646 : 0.451608 0.451608 0.359203 0.359203,lo,89.0,15.0,0.0,0.0,25.0,0.0,9.5,1.25,35.0,15.084339679603726,18.070392302348225,19.7740158875204,10.586139862192164,7.801503791922941,13.07336248780569,13.790741123607202,7.799117870007565,14.751377601184696
07_10,Raw Data\07_10\07_10_test_108.csv,,Integrated Beam Prototype 3,-0.046833 -0.046833 -0.046016 -0.046016 : 0.009751 0.009751 0.048646 0.048646 : 0.451608 0.451608 0.359203 0.359203,lo,89.0,15.0,0.0,0.0,25.0,0.0,9.5,1.25,35.0,14.9011290058963,15.829543161110667,32.04431467675621,14.706314543575829,8.155609458838708,7.970941606666602,25.05726962492777,6.772472232308311,13.648027118744482
07_10,Raw Data\07_10\07_10_test_109.csv,,Integrated Beam Prototype 3,-0.046833 -0.046833 -0.046016 -0.046016 : 0.009751 0.009751 0.048646 0.048646 : 0.451608 0.451608 0.359203 0.359203,lo,89.0,15.0,0.0,0.0,25.0,0.0,9.5,1.25,35.0,14.49506873139086,15.27180207926231,16.34031728296644,9.92630931071728,14.115837318522562,7.143407050772302,16.921748447378523,8.025957105596804,9.741454916029936
07_10,Raw Data\07_10\07_10_test_110.csv,,Integrated Beam Prototype 3,-0.046833 -0.046833 -0.046016 -0.046016 : 0.009751 0.009751 0.048646 0.048646 : 0.451608 0.451608 0.359203 0.359203,lo,89.0,15.0,0.0,0.0,25.0,0.0,9.5,1.25,35.0,16.547093210152074,15.233551337255005,26.14795499827395,11.23840377204213,9.634983774473532,4.402880784153712,26.355774901973827,7.296537702300935,11.13321121139597
07_10,Raw Data\07_10\07_10_test_111.csv,,Integrated Beam Prototype 3,-0.046833 -0.046833 -0.046016 -0.046016 : 0.009751 0.009751 0.048646 0.048646 : 0.451608 0.451608 0.359203 0.359203,lo,89.0,15.0,0.0,0.0,25.0,0.0,9.5,1.25,35.0,16.949250949186567,17.441426653150774,15.746539229838252,10.38959893378592,8.957302042606765,9.473786178413995,21.14470796101397,10.567621572083208,14.394928182304694
07_10,Raw Data\07_10\07_10_test_112.csv,,Integrated Beam Prototype 3,-0.046833 -0.046833 -0.046016 -0.046016 : 0.009751 0.009751 0.048646 0.048646 : 0.451608 0.451608 0.359203 0.359203,lo,89.0,15.0,0.0,0.0,25.0,0.0,9.5,1.25,35.0,17.185692241849893,15.929933191116865,25.7587002363563,10.358907881928763,6.134760802024546,14.944300113437716,18.79347945137723,8.190530133200893,14.678646186770347
07_10,Raw Data\07_10\07_10_test_113.csv,,Integrated Beam Prototype 3,-0.046833 -0.046833 -0.046016 -0.046016 : 0.009751 0.009751 0.048646 0.048646 : 0.451608 0.451608 0.359203 0.359203,lo,89.0,15.0,0.0,0.0,25.0,0.0,9.5,1.25,35.0,14.289177392474958,18.594648137383714,16.51741483913558,12.050329597137017,7.730668293115607,12.918910404295696,24.1701412200844,12.380249622455889,11.469290730976532
07_10,Raw Data\07_10\07_10_test_114.csv,,Integrated Beam Prototype 3,-0.046833 -0.046833 -0.046016 -0.046016 : 0.009751 0.009751 0.048646 0.048646 : 0.451608 0.451608 0.359203 0.359203,lo,89.0,15.0,0.0,0.0,25.0,0.0,9.5,1.25,35.0,14.985996287796755,15.566304933855406,22.35388635114501,8.692712279908438,9.981470414247015,11.989649514189242,24.18201520723611,12.653709095208258,15.263238730647789
07_10,Raw Data\07_10\07_10_test_115.csv,,Integrated Beam Prototype 3,-0.046833 -0.046833 -0.046016 -0.046016 : 0.009751 0.009751 0.048646 0.048646 : 0.451608 0.451608 0.359203 0.359203,lo,89.0,15.0,0.0,0.0,25.0,0.0,9.5,1.25,35.0,18.42905383236224,14.923647712706844,23.140937230508424,10.035993841866649,5.728534367739528,6.570701036931061,22.28667176630104,11.265061477030354,15.240746705184312
07_10,Raw Data\07_10\07_10_test_116.csv,,Integrated Beam Prototype 3,-0.046833 -0.046833 -0.046016 -0.046016 : 0.009751 0.009751 0.048646 0.048646 : 0.451608 0.451608 0.359203 0.359203,med,89.0,15.0,0.0,0.0,25.0,0.0,9.0,0.6000000000000001,37.5,24.697599452176096,23.537144862710115,22.884494906917205,28.123786822540545,29.40462303185776,28.324813241256475,25.93243326256107,27.27401587174757,24.567024413347447
07_10,Raw Data\07_10\07_10_test_117.csv,,Integrated Beam Prototype 3,-0.046833 -0.046833 -0.046016 -0.046016 : 0.009751 0.009751 0.048646 0.048646 : 0.451608 0.451608 0.359203 0.359203,med,89.0,15.0,0.0,0.0,25.0,0.0,9.0,0.6000000000000001,37.5,23.02414139159928,18.64036144301689,20.344885860188967,31.96435150151828,27.261385269907432,27.178644103226897,24.441667059121013,30.13358615664904,24.85339681004377
07_10,Raw Data\07_10\07_10_test_118.csv,,Integrated Beam Prototype 3,-0.046833 -0.046833 -0.046016 -0.046016 : 0.009751 0.009751 0.048646 0.048646 : 0.451608 0.451608 0.359203 0.359203,med,89.0,15.0,0.0,0.0,25.0,0.0,9.0,0.6000000000000001,37.5,21.769202579119884,22.610387051815284,20.918504883087,27.834957869289468,26.519888482527787,28.512999482374425,26.363874685619155,27.36970257671803,26.211453692802007
07_10,Raw Data\07_10\07_10_test_119.csv,,Integrated Beam Prototype 3,-0.046833 -0.046833 -0.046016 -0.046016 : 0.009751 0.009751 0.048646 0.048646 : 0.451608 0.451608 0.359203 0.359203,med,89.0,15.0,0.0,0.0,25.0,0.0,9.0,0.6000000000000001,37.5,25.2323123617086,19.65472724636137,20.98784018406267,26.796589714526284,24.3561926966224,23.003544192413155,22.366261336686907,23.22992316994822,18.05725068605029
07_10,Raw Data\07_10\07_10_test_120.csv,,Integrated Beam Prototype 3,-0.046833 -0.046833 -0.046016 -0.046016 : 0.009751 0.009751 0.048646 0.048646 : 0.451608 0.451608 0.359203 0.359203,med,89.0,15.0,0.0,0.0,25.0,0.0,9.0,0.6000000000000001,37.5,26.079037032256576,22.32671407269975,20.048564185262595,27.65459551773433,27.17828373894418,26.457357813424487,26.208759018977023,20.89098061342331,21.15920622443924
07_10,Raw Data\07_10\07_10_test_121.csv,,Integrated Beam Prototype 3,-0.046833 -0.046833 -0.046016 -0.046016 : 0.009751 0.009751 0.048646 0.048646 : 0.451608 0.451608 0.359203 0.359203,med,89.0,15.0,0.0,0.0,25.0,0.0,9.0,0.6000000000000001,37.5,18.33694950022849,24.242517632920887,22.43305089142902,24.316454401013445,22.50395558916551,23.763323683292136,16.850252802236827,25.137876336581417,20.59713314929654
07_10,Raw Data\07_10\07_10_test_122.csv,,Integrated Beam Prototype 3,-0.046833 -0.046833 -0.046016 -0.046016 : 0.009751 0.009751 0.048646 0.048646 : 0.451608 0.451608 0.359203 0.359203,med,89.0,15.0,0.0,0.0,25.0,0.0,9.0,0.6000000000000001,37.5,20.187059515053992,26.139667298138125,29.142918204891867,26.613874295020903,24.20641659735126,25.72811832211088,23.111541706519905,24.114212741144435,22.27957136071168
07_10,Raw Data\07_10\07_10_test_123.csv,,Integrated Beam Prototype 3,-0.046833 -0.046833 -0.046016 -0.046016 : 0.009751 0.009751 0.048646 0.048646 : 0.451608 0.451608 0.359203 0.359203,med,89.0,15.0,0.0,0.0,25.0,0.0,9.0,0.6000000000000001,37.5,21.76941827565324,22.277053700176378,22.808880003115217,26.361979028972225,23.06000521363484,24.91278188624677,24.88624530157857,25.62975683994416,22.917299187000527
07_10,Raw Data\07_10\07_10_test_124.csv,,Integrated Beam Prototype 3,-0.046833 -0.046833 -0.046016 -0.046016 : 0.009751 0.009751 0.048646 0.048646 : 0.451608 0.451608 0.359203 0.359203,med,89.0,15.0,0.0,0.0,25.0,0.0,9.0,0.6000000000000001,37.5,22.72536920390519,19.76873147187853,22.4071374617502,24.784771530695988,24.39632665608546,27.813229834246613,24.069124411669893,24.150003545178844,24.83741640897404
07_10,Raw Data\07_10\07_10_test_125.csv,,Integrated Beam Prototype 3,-0.046833 -0.046833 -0.046016 -0.046016 : 0.009751 0.009751 0.048646 0.048646 : 0.451608 0.451608 0.359203 0.359203,med,89.0,15.0,0.0,0.0,25.0,0.0,9.0,0.6000000000000001,37.5,21.53257807375194,21.181889235843013,22.49445573522269,27.01361078327246,24.6645829358679,25.84635537821227,25.811926682290004,28.205718872985308,19.82243449309861
07_10,Raw Data\07_10\07_10_test_126.csv,,Integrated Beam Prototype 3,-0.046833 -0.046833 -0.046016 -0.046016 : 0.009751 0.009751 0.048646 0.048646 : 0.451608 0.451608 0.359203 0.359203,med,89.0,15.0,0.0,0.0,25.0,0.0,9.0,0.6000000000000001,37.5,20.925421281028253,21.117574429687533,23.79040749001925,27.566296400638088,28.172294538187188,28.42342020413122,27.377721029406693,22.84968610118768,26.44542564984656
07_10,Raw Data\07_10\07_10_test_127.csv,,Integrated Beam Prototype 3,-0.046833 -0.046833 -0.046016 -0.046016 : 0.009751 0.009751 0.048646 0.048646 : 0.451608 0.451608 0.359203 0.359203,med,89.0,15.0,0.0,0.0,25.0,0.0,9.0,0.6000000000000001,37.5,23.93758562012368,24.43067319089702,18.82096326642379,29.44149676819183,26.77097688150752,25.80815966655237,24.84953889413022,26.46803728790138,20.33367702671431
07_10,Raw Data\07_10\07_10_test_128.csv,,Integrated Beam Prototype 3,-0.046833 -0.046833 -0.046016 -0.046016 : 0.009751 0.009751 0.048646 0.048646 : 0.451608 0.451608 0.359203 0.359203,med,89.0,15.0,0.0,0.0,25.0,0.0,9.0,0.6000000000000001,37.5,21.69400950328335,22.713167681645192,20.82472174733212,24.29942247212404,23.50325686893329,26.574459465037968,28.64042462871284,28.505489477786547,21.290960757862745
07_10,Raw Data\07_10\07_10_test_129.csv,,Integrated Beam Prototype 3,-0.046833 -0.046833 -0.046016 -0.046016 : 0.009751 0.009751 0.048646 0.048646 : 0.451608 0.451608 0.359203 0.359203,med,89.0,15.0,0.0,0.0,25.0,0.0,9.0,0.6000000000000001,37.5,23.19301022332608,22.488141807548686,21.505073387251507,28.166331190088624,27.67782915147129,26.528294878755712,23.386463840875404,24.244930515118103,23.079181171584963
07_10,Raw Data\07_10\07_10_test_130.csv,,Integrated Beam Prototype 3,-0.046833 -0.046833 -0.046016 -0.046016 : 0.009751 0.009751 0.048646 0.048646 : 0.451608 0.451608 0.359203 0.359203,med,89.0,15.0,0.0,0.0,25.0,0.0,9.0,0.6000000000000001,37.5,22.548606110311635,22.9576040278021,24.110250337560835,24.996489033019525,22.1885341546498,25.96532873516965,26.12896582851756,24.60805895850418,23.66976792656267
07_10,Raw Data\07_10\07_10_test_131.csv,,Integrated Beam Prototype 3,-0.046833 -0.046833 -0.046016 -0.046016 : 0.009751 0.009751 0.048646 0.048646 : 0.451608 0.451608 0.359203 0.359203,hi,89.0,15.0,0.0,0.0,25.0,0.0,9.0,0.6000000000000001,42.50000001,37.34373501625418,35.649056651503514,35.97358546429488,43.70810070114295,40.31483553789956,41.07239739095456,41.3321501857371,32.80890369919481,30.743218007193533
07_10,Raw Data\07_10\07_10_test_132.csv,,Integrated Beam Prototype 3,-0.046833 -0.046833 -0.046016 -0.046016 : 0.009751 0.009751 0.048646 0.048646 : 0.451608 0.451608 0.359203 0.359203,hi,89.0,15.0,0.0,0.0,25.0,0.0,9.0,0.6000000000000001,42.50000001,38.01260556552234,36.24003514249996,37.42897250912407,43.26084797992661,40.64917549229346,48.46099987388829,41.067933493730415,36.32919652329343,38.92195748014185
07_10,Raw Data\07_10\07_10_test_133.csv,,Integrated Beam Prototype 3,-0.046833 -0.046833 -0.046016 -0.046016 : 0.009751 0.009751 0.048646 0.048646 : 0.451608 0.451608 0.359203 0.359203,hi,89.0,15.0,0.0,0.0,25.0,0.0,9.0,0.6000000000000001,42.50000001,39.634616982771234,38.90283624745232,39.03589808030029,43.691062858256565,43.82510573106891,43.76525255201251,40.51670572547925,33.06812737024791,35.49530493811136
07_10,Raw Data\07_10\07_10_test_134.csv,,Integrated Beam Prototype 3,-0.046833 -0.046833 -0.046016 -0.046016 : 0.009751 0.009751 0.048646 0.048646 : 0.451608 0.451608 0.359203 0.359203,hi,89.0,15.0,0.0,0.0,25.0,0.0,9.0,0.6000000000000001,42.50000001,42.31991086662331,34.873440842159745,44.72806311869235,36.28115927499632,41.43176273023301,46.55920568244197,41.50724679816143,29.88423840781025,38.380248110785
07_10,Raw Data\07_10\07_10_test_135.csv,,Integrated Beam Prototype 3,-0.046833 -0.046833 -0.046016 -0.046016 : 0.009751 0.009751 0.048646 0.048646 : 0.451608 0.451608 0.359203 0.359203,hi,89.0,15.0,0.0,0.0,25.0,0.0,9.0,0.6000000000000001,42.50000001,41.71577971674101,35.40394582668456,37.01395352176045,48.87983987603943,44.581639166858565,42.99281912444741,47.58491946701946,32.27489644313331,33.835416113398686
07_10,Raw Data\07_10\07_10_test_136.csv,,Integrated Beam Prototype 3,-0.046833 -0.046833 -0.046016 -0.046016 : 0.009751 0.009751 0.048646 0.048646 : 0.451608 0.451608 0.359203 0.359203,hi,89.0,15.0,0.0,0.0,25.0,0.0,9.0,0.6000000000000001,42.50000001,41.006457993846944,37.68038141921695,39.65173727558284,41.4585265628479,41.644211976897935,43.75631816739362,39.34084097591639,34.34076606224792,38.44992539278161
07_10,Raw Data\07_10\07_10_test_137.csv,,Integrated Beam Prototype 3,-0.046833 -0.046833 -0.046016 -0.046016 : 0.009751 0.009751 0.048646 0.048646 : 0.451608 0.451608 0.359203 0.359203,hi,89.0,15.0,0.0,0.0,25.0,0.0,9.0,0.6000000000000001,42.50000001,40.264269960184365,36.06253453675634,37.70970097597076,48.41129917933807,45.48331293647171,45.16754356198195,43.58482396670227,35.36366342772225,35.51228540158056
07_10,Raw Data\07_10\07_10_test_138.csv,,Integrated Beam Prototype 3,-0.046833 -0.046833 -0.046016 -0.046016 : 0.009751 0.009751 0.048646 0.048646 : 0.451608 0.451608 0.359203 0.359203,hi,89.0,15.0,0.0,0.0,25.0,0.0,9.0,0.6000000000000001,42.50000001,41.3112105415168,34.36431552038734,37.31360109724077,39.3453436428698,41.69399914644478,44.94202001991153,39.96412611257947,31.46797641235449,41.42557672203704
07_10,Raw Data\07_10\07_10_test_139.csv,,Integrated Beam Prototype 3,-0.046833 -0.046833 -0.046016 -0.046016 : 0.009751 0.009751 0.048646 0.048646 : 0.451608 0.451608 0.359203 0.359203,hi,89.0,15.0,0.0,0.0,25.0,0.0,9.0,0.6000000000000001,42.50000001,40.49259868447887,31.700037377310235,37.54583336189621,43.07813546175272,43.50764325321848,41.99047276720778,44.42415392831631,33.900198953883425,33.563638994598286
07_10,Raw Data\07_10\07_10_test_140.csv,,Integrated Beam Prototype 3,-0.046833 -0.046833 -0.046016 -0.046016 : 0.009751 0.009751 0.048646 0.048646 : 0.451608 0.451608 0.359203 0.359203,hi,89.0,15.0,0.0,0.0,25.0,0.0,9.0,0.6000000000000001,42.50000001,41.66491600900154,38.86155635546703,36.113797085356005,39.77125419864707,41.87536765115899,45.02538339672486,42.025392725235264,36.855574764197655,33.20959771091842
07_10,Raw Data\07_10\07_10_test_141.csv,,Integrated Beam Prototype 3,-0.046833 -0.046833 -0.046016 -0.046016 : 0.009751 0.009751 0.048646 0.048646 : 0.451608 0.451608 0.359203 0.359203,hi,89.0,15.0,0.0,0.0,25.0,0.0,9.0,0.6000000000000001,42.50000001,34.12286930355079,37.98658821650954,39.20796287628073,45.830386641464976,45.69432425718706,39.16311676195061,44.74052659988431,36.329181153201546,40.48911660562828
07_10,Raw Data\07_10\07_10_test_142.csv,,Integrated Beam Prototype 3,-0.046833 -0.046833 -0.046016 -0.046016 : 0.009751 0.009751 0.048646 0.048646 : 0.451608 0.451608 0.359203 0.359203,hi,89.0,15.0,0.0,0.0,25.0,0.0,9.0,0.6000000000000001,42.50000001,37.59636224227146,39.61363745272628,36.75457740846899,45.950248967937625,46.364138333937376,45.19704143813537,38.06450762521835,31.932073537239848,39.372704757689725
07_10,Raw Data\07_10\07_10_test_143.csv,,Integrated Beam Prototype 3,-0.046833 -0.046833 -0.046016 -0.046016 : 0.009751 0.009751 0.048646 0.048646 : 0.451608 0.451608 0.359203 0.359203,hi,89.0,15.0,0.0,0.0,25.0,0.0,9.0,0.6000000000000001,42.50000001,40.00881598183595,35.76460048574335,34.12490300686154,40.19952782846894,44.38581920384523,42.68268859730072,40.1443521178505,32.92655396493239,35.984256787030375
07_10,Raw Data\07_10\07_10_test_144.csv,,Integrated Beam Prototype 3,-0.046833 -0.046833 -0.046016 -0.046016 : 0.009751 0.009751 0.048646 0.048646 : 0.451608 0.451608 0.359203 0.359203,hi,89.0,15.0,0.0,0.0,25.0,0.0,9.0,0.6000000000000001,42.50000001,36.92674725358379,34.76817436894665,37.26974128725235,37.75068129113966,39.82112618119822,47.59711848176298,42.86842227158463,36.860818229623895,38.23747149506311
07_10,Raw Data\07_10\07_10_test_145.csv,,Integrated Beam Prototype 3,-0.046833 -0.046833 -0.046016 -0.046016 : 0.009751 0.009751 0.048646 0.048646 : 0.451608 0.451608 0.359203 0.359203,hi,89.0,15.0,0.0,0.0,25.0,0.0,9.0,0.6000000000000001,42.50000001,39.6246208718754,38.771968438614095,35.46786200255598,44.42136163159447,43.4830555603693,43.46229852930454,42.30430764371138,34.18561506911712,37.26280899995165
