Date,File,user_note,rodney configuration,sensor calibration (k d c),stalk array (lo med hi),sensor height (cm),sensor yaw (degrees),sensor pitch (degrees),sensor roll (degrees),rate of travel (ft/min),angle of travel (degrees),sensor offset (cm to gauge 2),positionDDT_tol,forceDDT_tol,Stalk1,Stalk2,Stalk3,Stalk4,Stalk5,Stalk6,Stalk7,Stalk8,Stalk9
07_03,Raw Data\07_03\07_03_test_11.csv,,Integrated Beam Prototype 1,-0.047269 -5e-06 -0.046184 5.6e-05 : 0.009066 -1.854254 0.052102 -0.06902 : 0.280633 0.004403 0.101502 0.014988,lo,88.0,20.0,0.0,0.0,25.0,0.0,12.0,0.5075480621756793,70.0,13.546509169438632,,9.526029893757594,-2171.016617127644,8.769388235099752,6.018494045382212,9.889450118738182,14.848755848087343,7.444618874057153
07_03,Raw Data\07_03\07_03_test_12.csv,,Integrated Beam Prototype 1,-0.047269 -5e-06 -0.046184 5.6e-05 : 0.009066 -1.854254 0.052102 -0.06902 : 0.280633 0.004403 0.101502 0.014988,lo,88.0,20.0,0.0,0.0,25.0,0.0,12.0,0.5075480621756793,70.0,11.54222656164567,,10.949738240613764,3.4367232924349533,5.732635384636524,9.37153365416005,13.093639064193525,8.036619713595565,9.884570639908144
07_03,Raw Data\07_03\07_03_test_13.csv,,Integrated Beam Prototype 1,-0.047269 -5e-06 -0.046184 5.6e-05 : 0.009066 -1.854254 0.052102 -0.06902 : 0.280633 0.004403 0.101502 0.014988,lo,88.0,20.0,0.0,0.0,25.0,0.0,12.0,0.5075480621756793,70.0,8.096516836219376,,11.998822982995742,8.789370850694388,5.574090095647077,3.606454916183991,13.718847228401298,8.254553864434127,11.713387504795769
07_03,Raw Data\07_03\07_03_test_14.csv,,Integrated Beam Prototype 1,-0.047269 -5e-06 -0.046184 5.6e-05 : 0.009066 -1.854254 0.052102 -0.06902 : 0.280633 0.004403 0.101502 0.014988,lo,88.0,20.0,0.0,0.0,25.0,0.0,12.0,0.5075480621756793,70.0,8.964444109525905,,13.04093894817018,2.5797432242936247,4.7522954517078,4.992380500355701,10.834951111855744,6.552835483882877,11.677817083994247
07_03,Raw Data\07_03\07_03_test_15.csv,,Integrated Beam Prototype 1,-0.047269 -5e-06 -0.046184 5.6e-05 : 0.009066 -1.854254 0.052102 -0.06902 : 0.280633 0.004403 0.101502 0.014988,lo,88.0,20.0,0.0,0.0,25.0,0.0,12.0,0.5075480621756793,70.0,8.008616138313291,,15.414519865032378,4.663270506392983,2.606593469085656,6.14022084888966,9.52247626173991,5.66705238951554,11.253086883312315
07_03,Raw Data\07_03\07_03_test_16.csv,,Integrated Beam Prototype 1,-0.047269 -5e-06 -0.046184 5.6e-05 : 0.009066 -1.854254 0.052102 -0.06902 : 0.280633 0.004403 0.101502 0.014988,lo,88.0,20.0,0.0,0.0,25.0,0.0,12.0,0.5075480621756793,70.0,10.005511359460526,,11.47665566916242,6.368057787592371,4.634782414089005,5.708448683750462,10.344452593750246,8.157699691786478,10.444384847875169
07_03,Raw Data\07_03\07_03_test_17.csv,,Integrated Beam Prototype 1,-0.047269 -5e-06 -0.046184 5.6e-05 : 0.009066 -1.854254 0.052102 -0.06902 : 0.280633 0.004403 0.101502 0.014988,lo,88.0,20.0,0.0,0.0,25.0,0.0,12.0,0.5075480621756793,70.0,8.860493705213162,,12.919894416960425,7.528562191180089,6.688768028786949,9.50408990203144,13.149662091394084,6.137465072710206,8.387496059109651
07_03,Raw Data\07_03\07_03_test_18.csv,,Integrated Beam Prototype 1,-0.047269 -5e-06 -0.046184 5.6e-05 : 0.009066 -1.854254 0.052102 -0.06902 : 0.280633 0.004403 0.101502 0.014988,lo,88.0,20.0,0.0,0.0,25.0,0.0,12.0,0.5075480621756793,70.0,8.770275083493726,,11.660244872484348,5.580116127813092,6.0155150541987705,5.7261460762021255,13.999411588987542,8.819665841545943,9.574378706142932
07_03,Raw Data\07_03\07_03_test_19.csv,,Integrated Beam Prototype 1,-0.047269 -5e-06 -0.046184 5.6e-05 : 0.009066 -1.854254 0.052102 -0.06902 : 0.280633 0.004403 0.101502 0.014988,lo,88.0,20.0,0.0,0.0,25.0,0.0,12.0,0.5075480621756793,70.0,13.637247063680125,,13.750251871606729,8.024885953507583,6.357248603327633,14.189548164921623,15.188099983828245,12.65766322275161,12.42181488145414
07_03,Raw Data\07_03\07_03_test_20.csv,,Integrated Beam Prototype 1,-0.047269 -5e-06 -0.046184 5.6e-05 : 0.009066 -1.854254 0.052102 -0.06902 : 0.280633 0.004403 0.101502 0.014988,lo,88.0,20.0,0.0,0.0,25.0,0.0,12.0,0.5075480621756793,70.0,10.101295346929788,,12.819456885115818,6.596349891163521,4.340115358151737,8.514908718685788,17.252604900219247,5.759874300514795,9.734136187761225
07_03,Raw Data\07_03\07_03_test_21.csv,,Integrated Beam Prototype 1,-0.047269 -5e-06 -0.046184 5.6e-05 : 0.009066 -1.854254 0.052102 -0.06902 : 0.280633 0.004403 0.101502 0.014988,med,88.0,20.0,0.0,0.0,25.0,0.0,12.0,1.835775930201745,88.09449570634592,16.1329977866853,14.7384139797145,14.282130490048054,17.266234743176533,17.523504703562516,18.579243174498693,18.207215829658363,19.320974698761194,15.520349390573877
07_03,Raw Data\07_03\07_03_test_22.csv,,Integrated Beam Prototype 1,-0.047269 -5e-06 -0.046184 5.6e-05 : 0.009066 -1.854254 0.052102 -0.06902 : 0.280633 0.004403 0.101502 0.014988,med,88.0,20.0,0.0,0.0,25.0,0.0,12.0,1.835775930201745,88.09449570634592,16.558033178301844,15.54842515486783,15.456223538321224,17.95553622506609,16.36363749349912,20.174421849388526,16.681386464049577,17.750389602014867,17.49505871437981
07_03,Raw Data\07_03\07_03_test_23.csv,,Integrated Beam Prototype 1,-0.047269 -5e-06 -0.046184 5.6e-05 : 0.009066 -1.854254 0.052102 -0.06902 : 0.280633 0.004403 0.101502 0.014988,med,88.0,20.0,0.0,0.0,25.0,0.0,12.0,1.835775930201745,88.09449570634592,15.96101664264953,15.068895160297084,14.787570741864135,18.37743883071741,16.049112468653345,17.427800906327857,17.84123716426763,17.208461148512843,16.10840149176267
07_03,Raw Data\07_03\07_03_test_24.csv,,Integrated Beam Prototype 1,-0.047269 -5e-06 -0.046184 5.6e-05 : 0.009066 -1.854254 0.052102 -0.06902 : 0.280633 0.004403 0.101502 0.014988,med,88.0,20.0,0.0,0.0,25.0,0.0,12.0,1.835775930201745,88.09449570634592,17.24458753694405,16.193185752876566,14.241068956025147,20.651803740331147,19.35084701541533,18.09902101095097,18.2806398754449,19.12171321949095,15.714444150849236
07_03,Raw Data\07_03\07_03_test_25.csv,,Integrated Beam Prototype 1,-0.047269 -5e-06 -0.046184 5.6e-05 : 0.009066 -1.854254 0.052102 -0.06902 : 0.280633 0.004403 0.101502 0.014988,med,88.0,20.0,0.0,0.0,25.0,0.0,12.0,1.835775930201745,88.09449570634592,15.803181893952877,15.514379719404138,15.791761794747575,17.63361636199695,16.827120151749195,15.571201577857831,17.577987769451994,17.21293081691786,16.52780722353033
07_03,Raw Data\07_03\07_03_test_26.csv,,Integrated Beam Prototype 1,-0.047269 -5e-06 -0.046184 5.6e-05 : 0.009066 -1.854254 0.052102 -0.06902 : 0.280633 0.004403 0.101502 0.014988,med,88.0,20.0,0.0,0.0,25.0,0.0,12.0,1.835775930201745,88.09449570634592,15.970784866095103,15.035900545897231,13.272921589656146,16.972989990734572,16.789477230403577,15.688067719701523,15.375182064438386,15.736478161481523,13.8819674089736
07_03,Raw Data\07_03\07_03_test_27.csv,,Integrated Beam Prototype 1,-0.047269 -5e-06 -0.046184 5.6e-05 : 0.009066 -1.854254 0.052102 -0.06902 : 0.280633 0.004403 0.101502 0.014988,med,88.0,20.0,0.0,0.0,25.0,0.0,12.0,1.835775930201745,88.09449570634592,15.71295474050066,15.830311971526662,14.85537208770574,17.603937595010258,16.761953769450134,16.07700211425353,16.82335382771322,18.7305419280618,13.602505659461082
07_03,Raw Data\07_03\07_03_test_28.csv,,Integrated Beam Prototype 1,-0.047269 -5e-06 -0.046184 5.6e-05 : 0.009066 -1.854254 0.052102 -0.06902 : 0.280633 0.004403 0.101502 0.014988,med,88.0,20.0,0.0,0.0,25.0,0.0,12.0,1.835775930201745,88.09449570634592,16.91988104295343,16.889359801856777,14.3634416714034,19.02750819117048,17.421081747761676,18.22741776460741,18.109196201875708,21.55566897042152,15.542406925285782
07_03,Raw Data\07_03\07_03_test_29.csv,,Integrated Beam Prototype 1,-0.047269 -5e-06 -0.046184 5.6e-05 : 0.009066 -1.854254 0.052102 -0.06902 : 0.280633 0.004403 0.101502 0.014988,med,88.0,20.0,0.0,0.0,25.0,0.0,12.0,1.835775930201745,88.09449570634592,15.821707779658029,15.79284902316313,16.388364269524107,17.503370403270463,16.52100541577413,18.180359552975297,17.155733942926428,18.76322751255327,15.854096614112096
07_03,Raw Data\07_03\07_03_test_30.csv,,Integrated Beam Prototype 1,-0.047269 -5e-06 -0.046184 5.6e-05 : 0.009066 -1.854254 0.052102 -0.06902 : 0.280633 0.004403 0.101502 0.014988,med,88.0,20.0,0.0,0.0,25.0,0.0,12.0,1.835775930201745,88.09449570634592,16.181752088614214,15.2086808343546,14.916066409754974,18.315757567345653,16.631012095509348,16.859838768005833,15.894413411683812,16.22017169084174,16.034698549108523
07_03,Raw Data\07_03\07_03_test_31.csv,,Integrated Beam Prototype 1,-0.047269 -5e-06 -0.046184 5.6e-05 : 0.009066 -1.854254 0.052102 -0.06902 : 0.280633 0.004403 0.101502 0.014988,hi,88.0,20.0,0.0,0.0,25.0,0.0,12.0,3.5136070845666327,100.0,25.29176344496309,22.450727326977287,21.263393565525465,27.13735236406193,26.87589209407616,27.316287954453248,27.606754194490705,26.53222313611345,26.19029808992001
07_03,Raw Data\07_03\07_03_test_32.csv,,Integrated Beam Prototype 1,-0.047269 -5e-06 -0.046184 5.6e-05 : 0.009066 -1.854254 0.052102 -0.06902 : 0.280633 0.004403 0.101502 0.014988,hi,88.0,20.0,0.0,0.0,25.0,0.0,12.0,4.634743759314853,84.81753148028086,26.81047680959708,23.87842679868241,22.127517902087288,26.38589485713108,26.1610313912337,28.64620505244218,27.250160846239385,26.47910064706629,25.77835467738057
07_03,Raw Data\07_03\07_03_test_33.csv,,Integrated Beam Prototype 1,-0.047269 -5e-06 -0.046184 5.6e-05 : 0.009066 -1.854254 0.052102 -0.06902 : 0.280633 0.004403 0.101502 0.014988,hi,88.0,20.0,0.0,0.0,25.0,0.0,12.0,4.634743759314853,84.81753148028086,28.223574771001825,22.448642477180886,23.22077887704653,27.484582932658235,27.594765604581724,26.677584255279715,27.53695568390256,25.08634933111721,25.248102876936827
07_03,Raw Data\07_03\07_03_test_34.csv,,Integrated Beam Prototype 1,-0.047269 -5e-06 -0.046184 5.6e-05 : 0.009066 -1.854254 0.052102 -0.06902 : 0.280633 0.004403 0.101502 0.014988,hi,88.0,20.0,0.0,0.0,25.0,0.0,12.0,4.634743759314853,84.81753148028086,27.019163611142314,24.337244059081097,23.059300717713697,28.15867276867731,28.419740945317866,27.60695392470909,26.431186198066992,27.6472420524104,24.39313299363276
07_03,Raw Data\07_03\07_03_test_35.csv,,Integrated Beam Prototype 1,-0.047269 -5e-06 -0.046184 5.6e-05 : 0.009066 -1.854254 0.052102 -0.06902 : 0.280633 0.004403 0.101502 0.014988,hi,88.0,20.0,0.0,0.0,25.0,0.0,12.0,4.634743759314853,84.81753148028086,26.60015509483979,23.651195433341844,22.978954845556075,29.88298528126213,26.072030508438527,27.22817069275916,27.65884948277609,25.59440324542591,26.67889043954935
07_03,Raw Data\07_03\07_03_test_36.csv,,Integrated Beam Prototype 1,-0.047269 -5e-06 -0.046184 5.6e-05 : 0.009066 -1.854254 0.052102 -0.06902 : 0.280633 0.004403 0.101502 0.014988,hi,88.0,20.0,0.0,0.0,25.0,0.0,12.0,4.634743759314853,84.81753148028086,28.73537537019041,23.482228299087684,21.96065777196977,28.377045522887794,25.927951881797963,29.30444953307604,26.90312418598629,26.068173586628347,25.75029182179549
07_03,Raw Data\07_03\07_03_test_37.csv,,Integrated Beam Prototype 1,-0.047269 -5e-06 -0.046184 5.6e-05 : 0.009066 -1.854254 0.052102 -0.06902 : 0.280633 0.004403 0.101502 0.014988,hi,88.0,20.0,0.0,0.0,25.0,0.0,12.0,4.634743759314853,84.81753148028086,28.931603330744803,24.975545039969447,24.09688489417609,28.08075525862625,26.67225630332445,27.50288427700624,26.52302224406488,27.056253382847185,26.55751945352419
07_03,Raw Data\07_03\07_03_test_38.csv,,Integrated Beam Prototype 1,-0.047269 -5e-06 -0.046184 5.6e-05 : 0.009066 -1.854254 0.052102 -0.06902 : 0.280633 0.004403 0.101502 0.014988,hi,88.0,20.0,0.0,0.0,25.0,0.0,12.0,4.634743759314853,84.81753148028086,28.358061698989008,24.12425660825884,23.029927793657144,26.44718092005352,25.97243713744839,27.64149014114573,28.463549044468422,29.024208862058337,24.04860616517564
07_03,Raw Data\07_03\07_03_test_39.csv,,Integrated Beam Prototype 1,-0.047269 -5e-06 -0.046184 5.6e-05 : 0.009066 -1.854254 0.052102 -0.06902 : 0.280633 0.004403 0.101502 0.014988,hi,88.0,20.0,0.0,0.0,25.0,0.0,12.0,4.634743759314853,84.81753148028086,27.3885650029513,23.18944668768852,22.10444622546003,25.73678980113533,27.285303590716065,25.901358858753287,26.066454460423355,26.709591128899014,27.85303930685264
07_03,Raw Data\07_03\07_03_test_40.csv,,Integrated Beam Prototype 1,-0.047269 -5e-06 -0.046184 5.6e-05 : 0.009066 -1.854254 0.052102 -0.06902 : 0.280633 0.004403 0.101502 0.014988,hi,88.0,20.0,0.0,0.0,25.0,0.0,12.0,4.634743759314853,84.81753148028086,27.088028618530164,24.209849919627903,24.801207121569767,27.79204329002736,26.489466991813632,26.756850672464672,25.928551720515543,26.171263627065787,24.67579050116529
07_10,Raw Data\07_10\07_10_test_1.csv,,Integrated Beam Prototype 2,-0.046833 -0.046833 -0.046016 -0.046016 : 0.009751 0.009751 0.048646 0.048646 : 0.451608 0.451608 0.359203 0.359203,hi,88.9,20.0,0.0,0.0,25.0,0.0,7.5,5.0,100.0,33.47453232488636,29.66406588010761,30.338971021818324,34.64303995068685,34.29986487006473,34.77241579967117,33.475709463568386,32.46853568513979,31.586667493852623
07_10,Raw Data\07_10\07_10_test_2.csv,,Integrated Beam Prototype 2,-0.046833 -0.046833 -0.046016 -0.046016 : 0.009751 0.009751 0.048646 0.048646 : 0.451608 0.451608 0.359203 0.359203,hi,88.9,20.0,0.0,0.0,25.0,0.0,7.5,5.0,100.0,30.34415873791889,30.534454096484943,32.797719724215206,35.20908385122992,35.313559984665574,32.85853647116526,33.75945618618021,29.394151000876988,33.47041775995847
07_10,Raw Data\07_10\07_10_test_3.csv,,Integrated Beam Prototype 2,-0.046833 -0.046833 -0.046016 -0.046016 : 0.009751 0.009751 0.048646 0.048646 : 0.451608 0.451608 0.359203 0.359203,hi,88.9,20.0,0.0,0.0,25.0,0.0,7.5,5.0,100.0,33.63953554699241,29.23488850175981,30.81860482733991,34.64347289442868,36.5985448660784,37.15270050671523,33.51140670213773,28.44339826266355,29.799674129839303
07_10,Raw Data\07_10\07_10_test_4.csv,,Integrated Beam Prototype 2,-0.046833 -0.046833 -0.046016 -0.046016 : 0.009751 0.009751 0.048646 0.048646 : 0.451608 0.451608 0.359203 0.359203,hi,88.9,20.0,0.0,0.0,25.0,0.0,7.5,5.0,100.0,34.22454541173853,27.28340129258312,31.60937623245964,31.23863588496837,34.306967781814784,34.832014287829324,32.243188581686084,28.468552293128447,30.17705251183629
07_10,Raw Data\07_10\07_10_test_5.csv,,Integrated Beam Prototype 2,-0.046833 -0.046833 -0.046016 -0.046016 : 0.009751 0.009751 0.048646 0.048646 : 0.451608 0.451608 0.359203 0.359203,hi,88.9,20.0,0.0,0.0,25.0,0.0,7.5,5.0,100.0,33.9505021304444,29.87245416816753,31.26852170674442,33.833287342667184,33.45579440648199,37.39719406069738,35.08952362296929,34.75312625842767,32.48941033434045
07_10,Raw Data\07_10\07_10_test_6.csv,,Integrated Beam Prototype 2,-0.046833 -0.046833 -0.046016 -0.046016 : 0.009751 0.009751 0.048646 0.048646 : 0.451608 0.451608 0.359203 0.359203,hi,88.9,20.0,0.0,0.0,25.0,0.0,7.5,5.0,100.0,30.726674500576145,28.954070815939605,30.30718028382393,31.543071012680624,33.36748970854387,34.79158280953515,32.53585629869277,28.961355890254765,33.84425285030173
07_10,Raw Data\07_10\07_10_test_7.csv,,Integrated Beam Prototype 2,-0.046833 -0.046833 -0.046016 -0.046016 : 0.009751 0.009751 0.048646 0.048646 : 0.451608 0.451608 0.359203 0.359203,hi,88.9,20.0,0.0,0.0,25.0,0.0,7.5,5.0,100.0,33.69525402382508,29.094662340788275,33.14206179175199,32.5923833817691,32.64689730115928,34.56535907938117,31.76041020290315,29.35508669522236,33.728125717979935
07_10,Raw Data\07_10\07_10_test_8.csv,,Integrated Beam Prototype 2,-0.046833 -0.046833 -0.046016 -0.046016 : 0.009751 0.009751 0.048646 0.048646 : 0.451608 0.451608 0.359203 0.359203,hi,88.9,20.0,0.0,0.0,25.0,0.0,7.5,5.0,100.0,33.223354910106714,28.13857189886857,29.147029668858845,35.08441971486292,32.89979634736615,35.36918791230588,33.38799785157614,28.736668298640147,30.47351673945044
07_10,Raw Data\07_10\07_10_test_9.csv,,Integrated Beam Prototype 2,-0.046833 -0.046833 -0.046016 -0.046016 : 0.009751 0.009751 0.048646 0.048646 : 0.451608 0.451608 0.359203 0.359203,hi,88.9,20.0,0.0,0.0,25.0,0.0,7.5,5.0,100.0,33.34541056335254,28.498226060284853,30.42708363227106,34.08837772329311,34.42234881835466,33.22004862350458,33.106138756031164,29.91547579073393,32.56822102338254
07_10,Raw Data\07_10\07_10_test_10.csv,,Integrated Beam Prototype 2,-0.046833 -0.046833 -0.046016 -0.046016 : 0.009751 0.009751 0.048646 0.048646 : 0.451608 0.451608 0.359203 0.359203,hi,88.9,20.0,0.0,0.0,25.0,0.0,7.5,5.0,100.0,32.01726158150516,31.05180159952805,28.32097271758224,33.15711336150303,35.931288719846535,35.744758616333336,35.43725009247939,28.201024804430578,30.30785201364378
07_10,Raw Data\07_10\07_10_test_11.csv,,Integrated Beam Prototype 2,-0.046833 -0.046833 -0.046016 -0.046016 : 0.009751 0.009751 0.048646 0.048646 : 0.451608 0.451608 0.359203 0.359203,hi,88.9,20.0,0.0,0.0,25.0,0.0,7.5,5.0,100.0,34.52896782031396,29.795573506408072,30.108691255457213,30.39024879790666,34.87762484300611,36.406321731812056,35.84849847938652,30.75148324156666,31.828078612453485
07_10,Raw Data\07_10\07_10_test_12.csv,,Integrated Beam Prototype 2,-0.046833 -0.046833 -0.046016 -0.046016 : 0.009751 0.009751 0.048646 0.048646 : 0.451608 0.451608 0.359203 0.359203,hi,88.9,20.0,0.0,0.0,25.0,0.0,7.5,5.0,100.0,33.244047824975546,32.345227984850254,28.63173435464827,32.46391959700775,31.84770921097577,38.13919815165315,33.12497855092716,30.92072994456291,29.88438796155165
07_10,Raw Data\07_10\07_10_test_13.csv,,Integrated Beam Prototype 2,-0.046833 -0.046833 -0.046016 -0.046016 : 0.009751 0.009751 0.048646 0.048646 : 0.451608 0.451608 0.359203 0.359203,hi,88.9,20.0,0.0,0.0,25.0,0.0,7.5,5.0,100.0,33.45461571568431,29.33282513368522,30.615021204957657,35.084859484922745,32.74362924053936,35.33997424479918,30.872632032392048,31.407113531535625,32.21507654902226
07_10,Raw Data\07_10\07_10_test_14.csv,,Integrated Beam Prototype 2,-0.046833 -0.046833 -0.046016 -0.046016 : 0.009751 0.009751 0.048646 0.048646 : 0.451608 0.451608 0.359203 0.359203,hi,88.9,20.0,0.0,0.0,25.0,0.0,7.5,5.0,100.0,33.49360867844828,29.118506147413044,31.345796616635305,38.71377894459121,33.53869731187759,34.145509825054425,35.068507787154104,28.002467204843263,29.70251167987788
07_10,Raw Data\07_10\07_10_test_15.csv,,Integrated Beam Prototype 2,-0.046833 -0.046833 -0.046016 -0.046016 : 0.009751 0.009751 0.048646 0.048646 : 0.451608 0.451608 0.359203 0.359203,hi,88.9,20.0,0.0,0.0,25.0,0.0,7.5,5.0,100.0,34.892261517320925,31.33449573647618,31.40130883389522,33.68925521287256,34.93917943999697,35.50533983442435,32.05332191770296,28.074371895505365,31.6419350829252
07_10,Raw Data\07_10\07_10_test_16.csv,,Integrated Beam Prototype 2,-0.046833 -0.046833 -0.046016 -0.046016 : 0.009751 0.009751 0.048646 0.048646 : 0.451608 0.451608 0.359203 0.359203,med,89.0,20.0,0.0,0.0,25.0,0.0,9.0,3.5,100.0,21.17762217499212,19.17169695197769,20.65940258935868,24.392045964909624,22.88377490034018,23.006725188719045,24.32774513971462,22.99421745978324,21.906277726308183
07_10,Raw Data\07_10\07_10_test_17.csv,,Integrated Beam Prototype 2,-0.046833 -0.046833 -0.046016 -0.046016 : 0.009751 0.009751 0.048646 0.048646 : 0.451608 0.451608 0.359203 0.359203,med,89.0,20.0,0.0,0.0,25.0,0.0,9.0,3.5,100.0,21.45198480845617,20.09962884745194,20.884324636197928,22.5582079036371,21.12292833550833,23.038277009998065,21.94617549868361,24.4428666352968,19.99805331346416
07_10,Raw Data\07_10\07_10_test_18.csv,,Integrated Beam Prototype 2,-0.046833 -0.046833 -0.046016 -0.046016 : 0.009751 0.009751 0.048646 0.048646 : 0.451608 0.451608 0.359203 0.359203,med,89.0,20.0,0.0,0.0,25.0,0.0,9.0,3.5,100.0,18.676669753683505,19.82375674683204,18.646466513154365,24.05088619555313,24.865288587754616,24.251224424962803,21.89119319816276,26.01203163044027,20.96458121412521
07_10,Raw Data\07_10\07_10_test_19.csv,,Integrated Beam Prototype 2,-0.046833 -0.046833 -0.046016 -0.046016 : 0.009751 0.009751 0.048646 0.048646 : 0.451608 0.451608 0.359203 0.359203,med,89.0,20.0,0.0,0.0,25.0,0.0,9.0,3.5,100.0,18.34022413042289,19.4265559459928,19.42199958022894,22.43571172509944,21.3834148948258,24.101576617602632,21.90945866678333,23.97072907154594,21.286787578728408
07_10,Raw Data\07_10\07_10_test_20.csv,,Integrated Beam Prototype 2,-0.046833 -0.046833 -0.046016 -0.046016 : 0.009751 0.009751 0.048646 0.048646 : 0.451608 0.451608 0.359203 0.359203,med,89.0,20.0,0.0,0.0,25.0,0.0,9.0,3.5,100.0,19.22406067532726,18.24846330076958,19.60505014658452,20.32301400095022,22.89330208468905,22.244217096145388,22.19635943155102,23.275724719061465,20.536671877331592
07_10,Raw Data\07_10\07_10_test_21.csv,,Integrated Beam Prototype 2,-0.046833 -0.046833 -0.046016 -0.046016 : 0.009751 0.009751 0.048646 0.048646 : 0.451608 0.451608 0.359203 0.359203,med,89.0,20.0,0.0,0.0,25.0,0.0,9.0,3.5,100.0,21.59303323519208,19.84602327529025,20.450791066923145,22.94469778299253,21.756206430057084,24.158958086386736,23.26020406588111,21.54524941148092,18.79617215570063
07_10,Raw Data\07_10\07_10_test_22.csv,,Integrated Beam Prototype 2,-0.046833 -0.046833 -0.046016 -0.046016 : 0.009751 0.009751 0.048646 0.048646 : 0.451608 0.451608 0.359203 0.359203,med,89.0,20.0,0.0,0.0,25.0,0.0,9.0,3.5,100.0,20.0584717956779,19.161658244768496,18.60123721386833,23.23803731791276,21.85601046431644,21.69462282382485,20.96343192550976,24.96689273031442,21.145115634668205
07_10,Raw Data\07_10\07_10_test_23.csv,,Integrated Beam Prototype 2,-0.046833 -0.046833 -0.046016 -0.046016 : 0.009751 0.009751 0.048646 0.048646 : 0.451608 0.451608 0.359203 0.359203,med,89.0,20.0,0.0,0.0,25.0,0.0,9.0,3.5,100.0,18.352222144638347,20.33571310392895,19.53663934994079,23.13911078195232,22.157956536265026,21.75131728225457,21.417346935257587,22.561846460815943,21.185496841396983
07_10,Raw Data\07_10\07_10_test_24.csv,,Integrated Beam Prototype 2,-0.046833 -0.046833 -0.046016 -0.046016 : 0.009751 0.009751 0.048646 0.048646 : 0.451608 0.451608 0.359203 0.359203,med,89.0,20.0,0.0,0.0,25.0,0.0,9.0,3.5,100.0,20.45347086486761,18.564831972890552,19.074908258372787,23.46753490754856,22.164256906498803,22.746959986590216,19.794516411515527,23.570448638774145,21.78165665633349
07_10,Raw Data\07_10\07_10_test_25.csv,,Integrated Beam Prototype 2,-0.046833 -0.046833 -0.046016 -0.046016 : 0.009751 0.009751 0.048646 0.048646 : 0.451608 0.451608 0.359203 0.359203,med,89.0,20.0,0.0,0.0,25.0,0.0,9.0,3.5,100.0,19.89477580689485,19.236073795913573,18.61268737486681,23.37738069666322,22.278238880307143,22.31052468421982,21.466359008460635,22.04179447684744,19.84686117558815
07_10,Raw Data\07_10\07_10_test_26.csv,,Integrated Beam Prototype 2,-0.046833 -0.046833 -0.046016 -0.046016 : 0.009751 0.009751 0.048646 0.048646 : 0.451608 0.451608 0.359203 0.359203,med,89.0,20.0,0.0,0.0,25.0,0.0,9.0,3.5,100.0,18.72453668533292,18.97617640822804,18.98692585106348,22.789079068841804,22.547921066434064,24.73631254775449,21.80111987064842,23.64410120459396,21.026342646873545
07_10,Raw Data\07_10\07_10_test_27.csv,,Integrated Beam Prototype 2,-0.046833 -0.046833 -0.046016 -0.046016 : 0.009751 0.009751 0.048646 0.048646 : 0.451608 0.451608 0.359203 0.359203,med,89.0,20.0,0.0,0.0,25.0,0.0,9.0,3.5,100.0,20.113755127032995,21.61820403097526,19.632571140451944,23.829606557082748,22.04688530229464,23.88931126597346,21.24673499867498,22.60777293859001,20.74989339118751
07_10,Raw Data\07_10\07_10_test_28.csv,,Integrated Beam Prototype 2,-0.046833 -0.046833 -0.046016 -0.046016 : 0.009751 0.009751 0.048646 0.048646 : 0.451608 0.451608 0.359203 0.359203,med,89.0,20.0,0.0,0.0,25.0,0.0,9.0,3.5,100.0,19.61030431252565,20.741576361752884,20.487987435808176,24.327397639622387,21.906974074229527,21.97281259545724,22.081175697183504,22.7579133914819,20.002481217388887
07_10,Raw Data\07_10\07_10_test_29.csv,,Integrated Beam Prototype 2,-0.046833 -0.046833 -0.046016 -0.046016 : 0.009751 0.009751 0.048646 0.048646 : 0.451608 0.451608 0.359203 0.359203,med,89.0,20.0,0.0,0.0,25.0,0.0,9.0,3.5,100.0,21.33455402673681,21.29062142228348,18.91056784800335,24.89041103590101,21.10617201855506,22.64089635124997,21.02401545864615,22.835201510426007,20.599861350897967
07_10,Raw Data\07_10\07_10_test_30.csv,,Integrated Beam Prototype 2,-0.046833 -0.046833 -0.046016 -0.046016 : 0.009751 0.009751 0.048646 0.048646 : 0.451608 0.451608 0.359203 0.359203,med,89.0,20.0,0.0,0.0,25.0,0.0,9.0,3.5,100.0,19.56757890808888,20.57858873359415,16.391053886879252,21.737448848740684,21.23680482925806,22.326890502803625,21.97363387361394,21.46173227262097,18.763548147393635
07_10,Raw Data\07_10\07_10_test_31.csv,,Integrated Beam Prototype 2,-0.046833 -0.046833 -0.046016 -0.046016 : 0.009751 0.009751 0.048646 0.048646 : 0.451608 0.451608 0.359203 0.359203,lo,89.0,20.0,0.0,0.0,25.0,0.0,9.5,3.5,70.0,15.118723375494548,14.37261397643236,15.248401793171082,6.898044411395506,4.7128397418574695,5.445042520649331,13.79021441517401,7.529694786636203,9.295388228228292
07_10,Raw Data\07_10\07_10_test_32.csv,,Integrated Beam Prototype 2,-0.046833 -0.046833 -0.046016 -0.046016 : 0.009751 0.009751 0.048646 0.048646 : 0.451608 0.451608 0.359203 0.359203,lo,89.0,20.0,0.0,0.0,25.0,0.0,9.5,3.5,70.0,13.660332250015378,17.04341840072022,17.684856033769044,6.81353450484348,5.53956259466682,6.475827860418781,15.89670617446419,7.634470219279595,11.32746312622431
07_10,Raw Data\07_10\07_10_test_33.csv,,Integrated Beam Prototype 2,-0.046833 -0.046833 -0.046016 -0.046016 : 0.009751 0.009751 0.048646 0.048646 : 0.451608 0.451608 0.359203 0.359203,lo,89.0,20.0,0.0,0.0,25.0,0.0,9.5,3.5,70.0,14.553165812698884,16.04287112637529,18.78317411434097,7.230166516902454,6.749165955063233,10.20742296013099,15.107701380687638,7.458331724674435,9.31508579627026
07_10,Raw Data\07_10\07_10_test_34.csv,,Integrated Beam Prototype 2,-0.046833 -0.046833 -0.046016 -0.046016 : 0.009751 0.009751 0.048646 0.048646 : 0.451608 0.451608 0.359203 0.359203,lo,89.0,20.0,0.0,0.0,25.0,0.0,9.5,3.5,70.0,13.936468910116336,15.539801444037415,16.50057605269932,7.434243516327076,5.2747503867435945,8.214289310170725,16.402956173613166,6.429648620695113,9.715823686436057
07_10,Raw Data\07_10\07_10_test_35.csv,,Integrated Beam Prototype 2,-0.046833 -0.046833 -0.046016 -0.046016 : 0.009751 0.009751 0.048646 0.048646 : 0.451608 0.451608 0.359203 0.359203,lo,89.0,20.0,0.0,0.0,25.0,0.0,9.5,3.5,70.0,16.14372583648242,14.7718739344764,18.113167088719383,7.24478953545158,5.76177494399754,8.319072276413712,20.03722857108809,7.387428418229543,9.013297840926588
07_10,Raw Data\07_10\07_10_test_36.csv,,Integrated Beam Prototype 2,-0.046833 -0.046833 -0.046016 -0.046016 : 0.009751 0.009751 0.048646 0.048646 : 0.451608 0.451608 0.359203 0.359203,lo,89.0,20.0,0.0,0.0,25.0,0.0,9.5,3.5,70.0,14.919993513925546,15.83886978948326,14.832718643714667,7.832132413029284,7.508026054456519,7.072649057874459,22.28291544085245,7.286009124079856,11.826102479882111
07_10,Raw Data\07_10\07_10_test_37.csv,,Integrated Beam Prototype 2,-0.046833 -0.046833 -0.046016 -0.046016 : 0.009751 0.009751 0.048646 0.048646 : 0.451608 0.451608 0.359203 0.359203,lo,89.0,20.0,0.0,0.0,25.0,0.0,9.5,3.5,70.0,14.65325937205461,14.440520058890243,15.778953239249269,8.415026948888485,6.172240244017444,6.792753381520207,19.16481685057496,7.101663471343091,8.840635098441538
07_10,Raw Data\07_10\07_10_test_38.csv,,Integrated Beam Prototype 2,-0.046833 -0.046833 -0.046016 -0.046016 : 0.009751 0.009751 0.048646 0.048646 : 0.451608 0.451608 0.359203 0.359203,lo,89.0,20.0,0.0,0.0,25.0,0.0,9.5,3.5,70.0,13.849576395991669,14.28538400254245,17.74003657927965,6.925048281636159,6.148155679662369,7.790211064143714,16.886499237492725,6.987523917074563,9.407339800956368
07_10,Raw Data\07_10\07_10_test_39.csv,,Integrated Beam Prototype 2,-0.046833 -0.046833 -0.046016 -0.046016 : 0.009751 0.009751 0.048646 0.048646 : 0.451608 0.451608 0.359203 0.359203,lo,89.0,20.0,0.0,0.0,25.0,0.0,9.5,3.5,70.0,15.15656767317798,14.735762961343116,17.4610573298203,6.975486805401701,6.89249255167916,7.088808494550528,20.032475625442995,7.328042497079553,10.720136478873105
07_10,Raw Data\07_10\07_10_test_40.csv,,Integrated Beam Prototype 2,-0.046833 -0.046833 -0.046016 -0.046016 : 0.009751 0.009751 0.048646 0.048646 : 0.451608 0.451608 0.359203 0.359203,lo,89.0,20.0,0.0,0.0,25.0,0.0,9.5,3.5,70.0,14.749155046204327,15.205732428075155,16.590886296531117,8.10868073766323,4.909857451807784,8.245263841310791,21.14988889634587,7.219233215912212,10.8092593652543
07_10,Raw Data\07_10\07_10_test_41.csv,,Integrated Beam Prototype 2,-0.046833 -0.046833 -0.046016 -0.046016 : 0.009751 0.009751 0.048646 0.048646 : 0.451608 0.451608 0.359203 0.359203,lo,89.0,20.0,0.0,0.0,25.0,0.0,9.5,3.5,70.0,14.23648433114769,15.495187423160576,15.94099874168425,7.458566091474057,6.173792359628448,7.714741540465662,21.67666231248838,10.14104604066681,10.375952227232611
07_10,Raw Data\07_10\07_10_test_42.csv,,Integrated Beam Prototype 2,-0.046833 -0.046833 -0.046016 -0.046016 : 0.009751 0.009751 0.048646 0.048646 : 0.451608 0.451608 0.359203 0.359203,lo,89.0,20.0,0.0,0.0,25.0,0.0,9.5,3.5,70.0,13.524807263056529,15.591940465993712,17.624590836604018,7.651858646016385,5.488940251316996,6.9132858885391775,18.31532994739424,8.561354457062665,9.980432949347495
07_10,Raw Data\07_10\07_10_test_43.csv,,Integrated Beam Prototype 2,-0.046833 -0.046833 -0.046016 -0.046016 : 0.009751 0.009751 0.048646 0.048646 : 0.451608 0.451608 0.359203 0.359203,lo,89.0,20.0,0.0,0.0,25.0,0.0,9.5,3.5,70.0,14.376691516628334,15.6772512624761,18.23658802136581,7.827974050913991,5.80517616065682,7.061173187122586,16.189078790115058,7.443316891286588,10.966468806965274
07_10,Raw Data\07_10\07_10_test_44.csv,,Integrated Beam Prototype 2,-0.046833 -0.046833 -0.046016 -0.046016 : 0.009751 0.009751 0.048646 0.048646 : 0.451608 0.451608 0.359203 0.359203,lo,89.0,20.0,0.0,0.0,25.0,0.0,9.5,3.5,70.0,14.433792022884816,15.037143746921874,17.689691237328528,7.093487465452713,6.7401128581185175,10.23548466464803,20.493353583698138,7.766073069274362,10.600943184309592
07_10,Raw Data\07_10\07_10_test_45.csv,,Integrated Beam Prototype 2,-0.046833 -0.046833 -0.046016 -0.046016 : 0.009751 0.009751 0.048646 0.048646 : 0.451608 0.451608 0.359203 0.359203,lo,89.0,20.0,0.0,0.0,25.0,0.0,9.5,3.5,70.0,13.788841427513391,14.460230514099194,14.599275369853336,7.276750656984529,7.582397650186145,9.567126674763925,19.68126702909264,9.348193680361092,10.123726544010756
07_10,Raw Data\07_10\07_10_test_101.csv,,Integrated Beam Prototype 3,-0.046833 -0.046833 -0.046016 -0.046016 : 0.009751 0.009751 0.048646 0.048646 : 0.451608 0.451608 0.359203 0.359203,lo,89.0,15.0,0.0,0.0,25.0,0.0,9.5,3.5,70.0,18.979378276886617,16.643411520889313,19.211330641454364,11.15188674504638,6.236672821218607,9.7929261996798,15.723364574028157,8.410982477002852,14.38542415282292
07_10,Raw Data\07_10\07_10_test_102.csv,,Integrated Beam Prototype 3,-0.046833 -0.046833 -0.046016 -0.046016 : 0.009751 0.009751 0.048646 0.048646 : 0.451608 0.451608 0.359203 0.359203,lo,89.0,15.0,0.0,0.0,25.0,0.0,9.5,3.5,70.0,16.5381859329007,18.91648083140073,20.50062063446716,9.231086812394809,7.955565496054121,7.425041475338397,15.818762394750843,8.406032663918646,12.315400771895888
07_10,Raw Data\07_10\07_10_test_103.csv,,Integrated Beam Prototype 3,-0.046833 -0.046833 -0.046016 -0.046016 : 0.009751 0.009751 0.048646 0.048646 : 0.451608 0.451608 0.359203 0.359203,lo,89.0,15.0,0.0,0.0,25.0,0.0,9.5,3.5,70.0,14.02795786669467,16.530930134114712,21.27916512385013,8.365014189079766,7.348860663400701,6.205748690158229,17.734153889886883,9.349596037129274,9.710348971539773
07_10,Raw Data\07_10\07_10_test_104.csv,,Integrated Beam Prototype 3,-0.046833 -0.046833 -0.046016 -0.046016 : 0.009751 0.009751 0.048646 0.048646 : 0.451608 0.451608 0.359203 0.359203,lo,89.0,15.0,0.0,0.0,25.0,0.0,9.5,3.5,70.0,16.99417159639707,17.169759448860265,16.782164425433404,7.469167117840056,8.966948541730016,6.574955543523986,17.52943243005341,7.610528926720836,8.939195056164133
07_10,Raw Data\07_10\07_10_test_105.csv,,Integrated Beam Prototype 3,-0.046833 -0.046833 -0.046016 -0.046016 : 0.009751 0.009751 0.048646 0.048646 : 0.451608 0.451608 0.359203 0.359203,lo,89.0,15.0,0.0,0.0,25.0,0.0,9.5,3.5,70.0,16.92934274355788,20.26558220655001,19.81128010298931,8.453774701440905,7.071044041753759,5.723926214830516,14.514119626386291,7.050265470007348,11.074993431166485
07_10,Raw Data\07_10\07_10_test_106.csv,,Integrated Beam Prototype 3,-0.046833 -0.046833 -0.046016 -0.046016 : 0.009751 0.009751 0.048646 0.048646 : 0.451608 0.451608 0.359203 0.359203,lo,89.0,15.0,0.0,0.0,25.0,0.0,9.5,3.5,70.0,16.588100898461168,16.902261983953306,17.048370820214938,9.388162424451425,6.769893315757162,7.239061689828978,14.992865148233449,9.080807194020514,10.448713222738789
07_10,Raw Data\07_10\07_10_test_107.csv,,Integrated Beam Prototype 3,-0.046833 -0.046833 -0.046016 -0.046016 : 0.009751 0.009751 0.048646 0.048646 : 0.451608 0.451608 0.359203 0.359203,lo,89.0,15.0,0.0,0.0,25.0,0.0,9.5,3.5,70.0,14.077980369423344,18.084539102316054,18.320362126110897,7.797338404654621,5.629781115602153,8.36505468644682,12.632390355190871,8.086011349214937,13.12661502418162
07_10,Raw Data\07_10\07_10_test_108.csv,,Integrated Beam Prototype 3,-0.046833 -0.046833 -0.046016 -0.046016 : 0.009751 0.009751 0.048646 0.048646 : 0.451608 0.451608 0.359203 0.359203,lo,89.0,15.0,0.0,0.0,25.0,0.0,9.5,3.5,70.0,15.632152754698591,16.21664638882449,22.017071372346354,10.572245437041412,8.377806716798487,7.92222038716845,17.564967825712777,7.561109763950323,11.419295524710064
07_10,Raw Data\07_10\07_10_test_109.csv,,Integrated Beam Prototype 3,-0.046833 -0.046833 -0.046016 -0.046016 : 0.009751 0.009751 0.048646 0.048646 : 0.451608 0.451608 0.359203 0.359203,lo,89.0,15.0,0.0,0.0,25.0,0.0,9.5,3.5,70.0,13.908326263118823,15.759222980450422,16.856027371279758,9.670123393081852,6.81023815851927,7.9227831217391005,13.665921350932123,8.371668988613017,8.92583042534198
07_10,Raw Data\07_10\07_10_test_110.csv,,Integrated Beam Prototype 3,-0.046833 -0.046833 -0.046016 -0.046016 : 0.009751 0.009751 0.048646 0.048646 : 0.451608 0.451608 0.359203 0.359203,lo,89.0,15.0,0.0,0.0,25.0,0.0,9.5,3.5,70.0,15.444980392237458,15.879847344016534,20.513899473278947,10.085733808158468,8.051606372652856,6.259473161049028,20.527123131037616,7.644883992751847,10.016343401597448
07_10,Raw Data\07_10\07_10_test_111.csv,,Integrated Beam Prototype 3,-0.046833 -0.046833 -0.046016 -0.046016 : 0.009751 0.009751 0.048646 0.048646 : 0.451608 0.451608 0.359203 0.359203,lo,89.0,15.0,0.0,0.0,25.0,0.0,9.5,3.5,70.0,15.561096133687196,15.714492122868574,15.239839420356986,9.48976741440818,6.561152453347898,9.48579933480314,18.89652764711824,7.7216197324215665,12.456348834176689
07_10,Raw Data\07_10\07_10_test_112.csv,,Integrated Beam Prototype 3,-0.046833 -0.046833 -0.046016 -0.046016 : 0.009751 0.009751 0.048646 0.048646 : 0.451608 0.451608 0.359203 0.359203,lo,89.0,15.0,0.0,0.0,25.0,0.0,9.5,3.5,70.0,14.22134897304913,16.599791962580355,19.9005338795446,9.978218030697048,6.129963878164974,9.433158992479788,19.936535613850584,8.938281773565596,11.229088928263588
07_10,Raw Data\07_10\07_10_test_113.csv,,Integrated Beam Prototype 3,-0.046833 -0.046833 -0.046016 -0.046016 : 0.009751 0.009751 0.048646 0.048646 : 0.451608 0.451608 0.359203 0.359203,lo,89.0,15.0,0.0,0.0,25.0,0.0,9.5,3.5,70.0,14.559488281459918,17.643919743642144,16.25593058841775,9.63780332176522,8.104066335736018,9.487344071262337,20.79648674428188,10.298760544834671,10.55042949745742
07_10,Raw Data\07_10\07_10_test_114.csv,,Integrated Beam Prototype 3,-0.046833 -0.046833 -0.046016 -0.046016 : 0.009751 0.009751 0.048646 0.048646 : 0.451608 0.451608 0.359203 0.359203,lo,89.0,15.0,0.0,0.0,25.0,0.0,9.5,3.5,70.0,14.804085427736572,16.685758106881885,22.37030188396298,8.527591785569683,5.775016237097131,9.026316259790788,18.986705313938128,9.043839100203131,12.142357342948618
07_10,Raw Data\07_10\07_10_test_115.csv,,Integrated Beam Prototype 3,-0.046833 -0.046833 -0.046016 -0.046016 : 0.009751 0.009751 0.048646 0.048646 : 0.451608 0.451608 0.359203 0.359203,lo,89.0,15.0,0.0,0.0,25.0,0.0,9.5,3.5,70.0,16.807870595044726,15.115590261022096,22.09524431363934,9.39336690058052,5.357224776809396,7.533435848751318,19.97924910001115,9.9192194303504,9.20907339781746
07_10,Raw Data\07_10\07_10_test_116.csv,,Integrated Beam Prototype 3,-0.046833 -0.046833 -0.046016 -0.046016 : 0.009751 0.009751 0.048646 0.048646 : 0.451608 0.451608 0.359203 0.359203,med,89.0,15.0,0.0,0.0,25.0,0.0,9.0,1.7453561247141858,100.0,23.44197792067217,22.67239013145794,22.790118684451777,27.46192936888584,28.55625173030084,26.835857765822283,25.59051279409512,27.24085359380233,23.56502157924473
07_10,Raw Data\07_10\07_10_test_117.csv,,Integrated Beam Prototype 3,-0.046833 -0.046833 -0.046016 -0.046016 : 0.009751 0.009751 0.048646 0.048646 : 0.451608 0.451608 0.359203 0.359203,med,89.0,15.0,0.0,0.0,25.0,0.0,9.0,1.7453561247141858,100.0,22.28452854857107,19.761749285898016,20.67147699483253,29.93623928550098,27.255017869198245,27.311223832953143,24.66073753260709,29.06427665423552,24.521881485813022
07_10,Raw Data\07_10\07_10_test_118.csv,,Integrated Beam Prototype 3,-0.046833 -0.046833 -0.046016 -0.046016 : 0.009751 0.009751 0.048646 0.048646 : 0.451608 0.451608 0.359203 0.359203,med,89.0,15.0,0.0,0.0,25.0,0.0,9.0,1.7453561247141858,100.0,22.00209017932618,22.00376943182384,21.32003533014809,26.0988612081916,25.776644245622578,27.67584843816031,25.2621927358006,25.82040847320429,22.101552452162736
07_10,Raw Data\07_10\07_10_test_119.csv,,Integrated Beam Prototype 3,-0.046833 -0.046833 -0.046016 -0.046016 : 0.009751 0.009751 0.048646 0.048646 : 0.451608 0.451608 0.359203 0.359203,med,89.0,15.0,0.0,0.0,25.0,0.0,9.0,1.7453561247141858,100.0,23.48693287852157,19.81229982743064,20.82745371256681,25.97691060349877,24.797144557966057,23.76610145418569,22.463394950315617,23.711228521170028,18.21060035689223
07_10,Raw Data\07_10\07_10_test_120.csv,,Integrated Beam Prototype 3,-0.046833 -0.046833 -0.046016 -0.046016 : 0.009751 0.009751 0.048646 0.048646 : 0.451608 0.451608 0.359203 0.359203,med,89.0,15.0,0.0,0.0,25.0,0.0,9.0,1.7453561247141858,100.0,23.70175849248407,22.982669610066186,20.370570963391582,25.79350689795595,24.534875175637936,26.40931285764585,24.51962539080378,21.33682445792816,20.84397518818869
07_10,Raw Data\07_10\07_10_test_121.csv,,Integrated Beam Prototype 3,-0.046833 -0.046833 -0.046016 -0.046016 : 0.009751 0.009751 0.048646 0.048646 : 0.451608 0.451608 0.359203 0.359203,med,89.0,15.0,0.0,0.0,25.0,0.0,9.0,1.7453561247141858,100.0,19.851632541533487,23.96919839905929,21.250406858635223,24.34051378313618,22.832682711786347,23.886661886447964,18.19696651013468,23.47536416357225,20.47867084627601
07_10,Raw Data\07_10\07_10_test_122.csv,,Integrated Beam Prototype 3,-0.046833 -0.046833 -0.046016 -0.046016 : 0.009751 0.009751 0.048646 0.048646 : 0.451608 0.451608 0.359203 0.359203,med,89.0,15.0,0.0,0.0,25.0,0.0,9.0,1.7453561247141858,100.0,21.39994224502171,23.999802185251944,22.32223800569652,26.62180128566681,25.17291397357064,26.858366739902696,22.41123243631631,24.35536900326882,21.5709522666254
07_10,Raw Data\07_10\07_10_test_123.csv,,Integrated Beam Prototype 3,-0.046833 -0.046833 -0.046016 -0.046016 : 0.009751 0.009751 0.048646 0.048646 : 0.451608 0.451608 0.359203 0.359203,med,89.0,15.0,0.0,0.0,25.0,0.0,9.0,1.7453561247141858,100.0,21.1056044165284,21.59060421749496,22.45876159378196,25.285355265013585,23.507414194977635,25.263618792801324,25.20605954768977,25.38744548033512,22.85504128840925
07_10,Raw Data\07_10\07_10_test_124.csv,,Integrated Beam Prototype 3,-0.046833 -0.046833 -0.046016 -0.046016 : 0.009751 0.009751 0.048646 0.048646 : 0.451608 0.451608 0.359203 0.359203,med,89.0,15.0,0.0,0.0,25.0,0.0,9.0,1.7453561247141858,100.0,23.25979119512961,20.242713776750325,21.25909726126361,24.241427600097268,23.66198588671921,27.612653562189504,23.88334438303719,24.815909122361948,24.74796374584147
07_10,Raw Data\07_10\07_10_test_125.csv,,Integrated Beam Prototype 3,-0.046833 -0.046833 -0.046016 -0.046016 : 0.009751 0.009751 0.048646 0.048646 : 0.451608 0.451608 0.359203 0.359203,med,89.0,15.0,0.0,0.0,25.0,0.0,9.0,1.7453561247141858,100.0,21.110577833179544,20.65726571693033,22.0039410464326,25.86696131771469,25.12490806930402,25.252582997560207,25.67370999049178,27.433701491819672,20.4184996828795
07_10,Raw Data\07_10\07_10_test_126.csv,,Integrated Beam Prototype 3,-0.046833 -0.046833 -0.046016 -0.046016 : 0.009751 0.009751 0.048646 0.048646 : 0.451608 0.451608 0.359203 0.359203,med,89.0,15.0,0.0,0.0,25.0,0.0,9.0,1.7453561247141858,100.0,20.715005060152546,21.34636507020901,23.36348466641866,26.78481881644255,26.538130560381536,28.139784778371908,25.81799982092388,23.40467680064481,24.580911531197945
07_10,Raw Data\07_10\07_10_test_127.csv,,Integrated Beam Prototype 3,-0.046833 -0.046833 -0.046016 -0.046016 : 0.009751 0.009751 0.048646 0.048646 : 0.451608 0.451608 0.359203 0.359203,med,89.0,15.0,0.0,0.0,25.0,0.0,9.0,1.7453561247141858,100.0,22.6821822970486,23.759424224028933,19.84868907426818,26.643547620876088,26.633166023524765,24.68321723398948,24.91305374176358,23.92870737348917,20.87201075365853
07_10,Raw Data\07_10\07_10_test_128.csv,,Integrated Beam Prototype 3,-0.046833 -0.046833 -0.046016 -0.046016 : 0.009751 0.009751 0.048646 0.048646 : 0.451608 0.451608 0.359203 0.359203,med,89.0,15.0,0.0,0.0,25.0,0.0,9.0,1.7453561247141858,100.0,21.895466354582336,22.96819993152461,21.28842696116528,23.44197899265241,22.80064921683812,26.147683617326138,26.50154633585272,28.49899029498228,20.444400550480168
07_10,Raw Data\07_10\07_10_test_129.csv,,Integrated Beam Prototype 3,-0.046833 -0.046833 -0.046016 -0.046016 : 0.009751 0.009751 0.048646 0.048646 : 0.451608 0.451608 0.359203 0.359203,med,89.0,15.0,0.0,0.0,25.0,0.0,9.0,1.7453561247141858,100.0,22.26896335783668,21.7749815670826,21.506446715530608,27.01844907171488,25.551777025515023,26.830628895943395,24.547593312758536,23.256188738770124,21.975758766548395
07_10,Raw Data\07_10\07_10_test_130.csv,,Integrated Beam Prototype 3,-0.046833 -0.046833 -0.046016 -0.046016 : 0.009751 0.009751 0.048646 0.048646 : 0.451608 0.451608 0.359203 0.359203,med,89.0,15.0,0.0,0.0,25.0,0.0,9.0,1.7453561247141858,100.0,21.250524335663112,22.777857339414734,21.629925390653,25.096202390826964,22.51584670863417,24.678465084259464,24.660904672583506,25.19095179362653,23.45155504567884
07_10,Raw Data\07_10\07_10_test_131.csv,,Integrated Beam Prototype 3,-0.046833 -0.046833 -0.046016 -0.046016 : 0.009751 0.009751 0.048646 0.048646 : 0.451608 0.451608 0.359203 0.359203,hi,89.0,15.0,0.0,0.0,25.0,0.0,9.0,5.0,100.0,37.25450675098144,35.436782351188114,36.34819365727255,42.28062138464066,39.80378665531232,41.318129910376015,39.68917417721666,34.18107740454035,32.320425766251695
07_10,Raw Data\07_10\07_10_test_132.csv,,Integrated Beam Prototype 3,-0.046833 -0.046833 -0.046016 -0.046016 : 0.009751 0.009751 0.048646 0.048646 : 0.451608 0.451608 0.359203 0.359203,hi,89.0,15.0,0.0,0.0,25.0,0.0,9.0,5.0,100.0,37.63886937965353,35.950254441532394,36.94410439244346,43.03018204169868,39.40201853731382,43.72788610548393,40.89421462393359,34.87852539129603,38.21459086170741
07_10,Raw Data\07_10\07_10_test_133.csv,,Integrated Beam Prototype 3,-0.046833 -0.046833 -0.046016 -0.046016 : 0.009751 0.009751 0.048646 0.048646 : 0.451608 0.451608 0.359203 0.359203,hi,89.0,15.0,0.0,0.0,25.0,0.0,9.0,5.0,100.0,39.94795797881085,37.27012594127307,38.05882073559777,41.94771700691783,41.27889385458114,44.750133673435286,39.25235176772769,32.210829156268375,38.76535042315743
07_10,Raw Data\07_10\07_10_test_134.csv,,Integrated Beam Prototype 3,-0.046833 -0.046833 -0.046016 -0.046016 : 0.009751 0.009751 0.048646 0.048646 : 0.451608 0.451608 0.359203 0.359203,hi,89.0,15.0,0.0,0.0,25.0,0.0,9.0,5.0,100.0,41.5802223980023,35.079254291932386,41.98238999259232,36.767617551998455,41.39641063260762,44.39932707878115,40.35732769333932,33.776551880213226,37.36929828530792
07_10,Raw Data\07_10\07_10_test_135.csv,,Integrated Beam Prototype 3,-0.046833 -0.046833 -0.046016 -0.046016 : 0.009751 0.009751 0.048646 0.048646 : 0.451608 0.451608 0.359203 0.359203,hi,89.0,15.0,0.0,0.0,25.0,0.0,9.0,5.0,100.0,41.77104108166774,35.70247971688124,37.17010310241791,42.81510597261246,42.01401259503088,42.264014681568455,43.49653999956527,33.30068098515101,34.4684004517576
07_10,Raw Data\07_10\07_10_test_136.csv,,Integrated Beam Prototype 3,-0.046833 -0.046833 -0.046016 -0.046016 : 0.009751 0.009751 0.048646 0.048646 : 0.451608 0.451608 0.359203 0.359203,hi,89.0,15.0,0.0,0.0,25.0,0.0,9.0,5.0,100.0,38.88250502208074,36.24680653535896,36.99612870199548,39.89258204882194,41.35643278792339,42.24266097256998,38.88733807662455,35.57895350073491,37.19636386601272
07_10,Raw Data\07_10\07_10_test_137.csv,,Integrated Beam Prototype 3,-0.046833 -0.046833 -0.046016 -0.046016 : 0.009751 0.009751 0.048646 0.048646 : 0.451608 0.451608 0.359203 0.359203,hi,89.0,15.0,0.0,0.0,25.0,0.0,9.0,5.0,100.0,39.247879147541,34.55607244794015,36.42867154048968,45.00000845389899,43.92372933551723,44.62504619517596,40.83354033289302,35.4932825500847,36.46847933088079
07_10,Raw Data\07_10\07_10_test_138.csv,,Integrated Beam Prototype 3,-0.046833 -0.046833 -0.046016 -0.046016 : 0.009751 0.009751 0.048646 0.048646 : 0.451608 0.451608 0.359203 0.359203,hi,89.0,15.0,0.0,0.0,25.0,0.0,9.0,5.0,100.0,39.72633409494468,33.37799428005705,37.08313976638944,40.06042164152742,40.675204739138586,44.12575900674765,40.29333389794447,32.147699604003755,38.13627148072945
07_10,Raw Data\07_10\07_10_test_139.csv,,Integrated Beam Prototype 3,-0.046833 -0.046833 -0.046016 -0.046016 : 0.009751 0.009751 0.048646 0.048646 : 0.451608 0.451608 0.359203 0.359203,hi,89.0,15.0,0.0,0.0,25.0,0.0,9.0,5.0,100.0,39.607075869722905,32.9698696789648,36.62516981397626,41.2846777063224,42.43610975679221,42.3871286642278,44.78393333015484,35.33900171847049,36.94027717849076
07_10,Raw Data\07_10\07_10_test_140.csv,,Integrated Beam Prototype 3,-0.046833 -0.046833 -0.046016 -0.046016 : 0.009751 0.009751 0.048646 0.048646 : 0.451608 0.451608 0.359203 0.359203,hi,89.0,15.0,0.0,0.0,25.0,0.0,9.0,5.0,100.0,40.267072156941325,37.37244988096948,35.99375244547089,40.84369268273284,40.3859761686018,41.664744338271134,41.86460458463146,34.51186713563339,33.83691076999177
07_10,Raw Data\07_10\07_10_test_141.csv,,Integrated Beam Prototype 3,-0.046833 -0.046833 -0.046016 -0.046016 : 0.009751 0.009751 0.048646 0.048646 : 0.451608 0.451608 0.359203 0.359203,hi,89.0,15.0,0.0,0.0,25.0,0.0,9.0,5.0,100.0,35.02934062894226,37.00847643921741,37.8752042515446,43.35898699290956,41.98173762230916,39.81348464476373,42.68111048577145,36.201579947292366,39.7464673134283
07_10,Raw Data\07_10\07_10_test_142.csv,,Integrated Beam Prototype 3,-0.046833 -0.046833 -0.046016 -0.046016 : 0.009751 0.009751 0.048646 0.048646 : 0.451608 0.451608 0.359203 0.359203,hi,89.0,15.0,0.0,0.0,25.0,0.0,9.0,5.0,100.0,37.75860796310752,36.534085282142726,35.844337608651614,42.93018490966397,43.90507508656313,42.9309632239335,37.65896182064549,33.25810781054219,36.21254987926682
07_10,Raw Data\07_10\07_10_test_143.csv,,Integrated Beam Prototype 3,-0.046833 -0.046833 -0.046016 -0.046016 : 0.009751 0.009751 0.048646 0.048646 : 0.451608 0.451608 0.359203 0.359203,hi,89.0,15.0,0.0,0.0,25.0,0.0,9.0,5.0,100.0,38.64758821736897,35.27783443402694,34.03466240091964,39.58067624710665,43.26506744908556,42.992413865260126,39.84238523561218,35.55615935286342,37.07037922422499
07_10,Raw Data\07_10\07_10_test_144.csv,,Integrated Beam Prototype 3,-0.046833 -0.046833 -0.046016 -0.046016 : 0.009751 0.009751 0.048646 0.048646 : 0.451608 0.451608 0.359203 0.359203,hi,89.0,15.0,0.0,0.0,25.0,0.0,9.0,5.0,100.0,36.76580407173006,34.298619690184864,35.633369986522055,36.43747779567956,40.6242339053721,45.3423696878389,42.23692617962919,36.03145295464106,38.12658996475423
07_10,Raw Data\07_10\07_10_test_145.csv,,Integrated Beam Prototype 3,-0.046833 -0.046833 -0.046016 -0.046016 : 0.009751 0.009751 0.048646 0.048646 : 0.451608 0.451608 0.359203 0.359203,hi,89.0,15.0,0.0,0.0,25.0,0.0,9.0,5.0,100.0,38.08728543917836,37.43226266985131,34.46024625633967,41.65690608993953,41.2689957098888,44.41115729950338,40.50706030093633,34.72080546276278,35.9665557800475
07_11,Raw Data\07_11\07_11_test_1.csv,,Integrated Beam Prototype 3,-0.046833 -0.046833 -0.046016 -0.046016 : 0.009751 0.009751 0.048646 0.048646 : 0.451608 0.451608 0.359203 0.359203,hi,89.0,15.0,0.0,0.0,25.0,0.0,9.0,5.0,100.0,40.07566312939472,38.41718275897037,40.51943711018564,45.09524858758525,43.00035771206222,46.10430615657301,40.8158089820766,34.60436853545605,40.99511991202708
07_11,Raw Data\07_11\07_11_test_2.csv,,Integrated Beam Prototype 3,-0.046833 -0.046833 -0.046016 -0.046016 : 0.009751 0.009751 0.048646 0.048646 : 0.451608 0.451608 0.359203 0.359203,hi,89.0,15.0,0.0,0.0,25.0,0.0,9.0,5.0,100.0,40.65221613769782,35.52878557008185,31.851797367343487,41.33875193521763,41.00201859333156,39.0259517806973,40.30471678055695,35.28395381226581,34.33303600177887
07_11,Raw Data\07_11\07_11_test_3.csv,,Integrated Beam Prototype 3,-0.046833 -0.046833 -0.046016 -0.046016 : 0.009751 0.009751 0.048646 0.048646 : 0.451608 0.451608 0.359203 0.359203,hi,89.0,15.0,0.0,0.0,25.0,0.0,9.0,5.0,100.0,39.7479744589541,34.339515479321875,35.77419931407395,42.71139188126914,41.90478995265295,42.45999192651354,41.471745821070606,34.51089840047199,38.7192720824422
07_11,Raw Data\07_11\07_11_test_4.csv,,Integrated Beam Prototype 3,-0.046833 -0.046833 -0.046016 -0.046016 : 0.009751 0.009751 0.048646 0.048646 : 0.451608 0.451608 0.359203 0.359203,hi,89.0,15.0,0.0,0.0,25.0,0.0,9.0,5.0,100.0,38.72974942720224,33.46934845279819,34.90519660933544,40.35188195980287,43.91886760177408,42.60921878598445,43.27994004481723,35.282663845200304,35.97370176709203
07_11,Raw Data\07_11\07_11_test_5.csv,,Integrated Beam Prototype 3,-0.046833 -0.046833 -0.046016 -0.046016 : 0.009751 0.009751 0.048646 0.048646 : 0.451608 0.451608 0.359203 0.359203,hi,89.0,15.0,0.0,0.0,25.0,0.0,9.0,5.0,100.0,39.91161842683332,33.91632882167184,36.01772939655084,40.22062859516383,39.83854149305537,45.65774858758239,43.646233871131024,34.601964580008826,37.64542024780539
07_11,Raw Data\07_11\07_11_test_6.csv,,Integrated Beam Prototype 3,-0.046833 -0.046833 -0.046016 -0.046016 : 0.009751 0.009751 0.048646 0.048646 : 0.451608 0.451608 0.359203 0.359203,hi,89.0,15.0,0.0,0.0,25.0,0.0,9.0,5.0,100.0,38.3868033446992,33.96555814911664,34.64125633233518,44.367519731859296,46.15081847770744,40.67225517391821,39.61744830984827,37.81810864939621,35.148375658517544
07_11,Raw Data\07_11\07_11_test_7.csv,,Integrated Beam Prototype 3,-0.046833 -0.046833 -0.046016 -0.046016 : 0.009751 0.009751 0.048646 0.048646 : 0.451608 0.451608 0.359203 0.359203,hi,89.0,15.0,0.0,0.0,25.0,0.0,9.0,5.0,100.0,39.35235441268704,34.78094258918836,37.49714942438963,44.32229502357404,40.18557359431581,47.02868808091255,40.57440427368857,30.45153185886716,40.4044006698735
07_11,Raw Data\07_11\07_11_test_8.csv,,Integrated Beam Prototype 3,-0.046833 -0.046833 -0.046016 -0.046016 : 0.009751 0.009751 0.048646 0.048646 : 0.451608 0.451608 0.359203 0.359203,hi,89.0,15.0,0.0,0.0,25.0,0.0,9.0,5.0,100.0,42.60070718603768,33.425087291680846,36.9484248289204,42.87230969092022,41.720231224408,39.39049254146455,40.088860073139024,34.28047478815132,39.70850248487617
07_11,Raw Data\07_11\07_11_test_9.csv,,Integrated Beam Prototype 3,-0.046833 -0.046833 -0.046016 -0.046016 : 0.009751 0.009751 0.048646 0.048646 : 0.451608 0.451608 0.359203 0.359203,hi,89.0,15.0,0.0,0.0,25.0,0.0,9.0,5.0,100.0,38.92812555326952,33.78525870090257,35.3454738028635,52.96238822749654,41.230217824417856,43.6478711301504,40.16926230511921,38.43681060057775,38.21136185907886
07_11,Raw Data\07_11\07_11_test_10.csv,,Integrated Beam Prototype 3,-0.046833 -0.046833 -0.046016 -0.046016 : 0.009751 0.009751 0.048646 0.048646 : 0.451608 0.451608 0.359203 0.359203,hi,89.0,15.0,0.0,0.0,25.0,0.0,9.0,5.0,100.0,39.35359287287105,33.449220184481995,34.88939396752677,42.031845310093615,40.1804440490987,41.41993851827498,39.75264741283122,36.653625154995055,39.62333565641743
07_11,Raw Data\07_11\07_11_test_11.csv,,Integrated Beam Prototype 3,-0.046833 -0.046833 -0.046016 -0.046016 : 0.009751 0.009751 0.048646 0.048646 : 0.451608 0.451608 0.359203 0.359203,hi,89.0,15.0,0.0,0.0,25.0,0.0,9.0,5.0,100.0,37.221974024883416,34.33606207826911,38.32700777097324,39.24054656537476,40.03042385448393,41.56721248285219,41.48665709049359,34.02329251077331,41.26704993084167
07_11,Raw Data\07_11\07_11_test_12.csv,,Integrated Beam Prototype 3,-0.046833 -0.046833 -0.046016 -0.046016 : 0.009751 0.009751 0.048646 0.048646 : 0.451608 0.451608 0.359203 0.359203,hi,89.0,15.0,0.0,0.0,25.0,0.0,9.0,5.0,100.0,40.06332182657091,35.76849868065859,35.60549753566108,43.581048800386576,40.9361493869993,39.895190702181466,39.093250556756665,35.71689210766773,35.981327157039715
07_11,Raw Data\07_11\07_11_test_13.csv,,Integrated Beam Prototype 3,-0.046833 -0.046833 -0.046016 -0.046016 : 0.009751 0.009751 0.048646 0.048646 : 0.451608 0.451608 0.359203 0.359203,hi,89.0,15.0,0.0,0.0,25.0,0.0,9.0,5.0,100.0,40.70470359790948,35.49326701914524,37.68322700653692,41.47111484076827,42.98630061728372,41.23727702846119,39.13885221792562,35.1046534385928,36.90652987813908
07_11,Raw Data\07_11\07_11_test_14.csv,,Integrated Beam Prototype 3,-0.046833 -0.046833 -0.046016 -0.046016 : 0.009751 0.009751 0.048646 0.048646 : 0.451608 0.451608 0.359203 0.359203,hi,89.0,15.0,0.0,0.0,25.0,0.0,9.0,5.0,100.0,36.27479637813974,35.00942595058705,36.8076235220028,39.190742226558015,42.1975543536208,40.76811033778518,40.13716044485856,35.02019288553818,33.559911263911395
07_11,Raw Data\07_11\07_11_test_15.csv,,Integrated Beam Prototype 3,-0.046833 -0.046833 -0.046016 -0.046016 : 0.009751 0.009751 0.048646 0.048646 : 0.451608 0.451608 0.359203 0.359203,hi,89.0,15.0,0.0,0.0,25.0,0.0,9.0,5.0,100.0,39.55252828831088,31.745261328017254,36.223651763855685,40.08276392966273,39.02752586939193,44.221914247100514,37.04191795853632,32.5527238063865,39.09539806185676
07_11,Raw Data\07_11\07_11_test_16.csv,,Integrated Beam Prototype 3,-0.046833 -0.046833 -0.046016 -0.046016 : 0.009751 0.009751 0.048646 0.048646 : 0.451608 0.451608 0.359203 0.359203,med,89.0,15.0,0.0,0.0,25.0,0.0,9.0,1.7453561247141858,100.0,22.2615416890334,24.67807913937892,24.94432880210235,26.52836583220233,25.388452707874144,26.42689377671508,24.55601565236861,25.4849983255581,25.159696232200982
07_11,Raw Data\07_11\07_11_test_17.csv,,Integrated Beam Prototype 3,-0.046833 -0.046833 -0.046016 -0.046016 : 0.009751 0.009751 0.048646 0.048646 : 0.451608 0.451608 0.359203 0.359203,med,89.0,15.0,0.0,0.0,25.0,0.0,9.0,1.7453561247141858,100.0,24.90199710826701,21.58940590759294,23.54565294739327,27.51762427862188,27.95339985863129,25.70611676220789,27.082194928086047,29.36253485373761,26.76572582919353
07_11,Raw Data\07_11\07_11_test_18.csv,,Integrated Beam Prototype 3,-0.046833 -0.046833 -0.046016 -0.046016 : 0.009751 0.009751 0.048646 0.048646 : 0.451608 0.451608 0.359203 0.359203,med,89.0,15.0,0.0,0.0,25.0,0.0,9.0,1.7453561247141858,100.0,24.7413969352393,23.79218186457634,23.012057165982466,26.852913794059106,24.535180129844,27.80257009767748,24.42287749713779,24.58989860083172,24.474039077260485
07_11,Raw Data\07_11\07_11_test_19.csv,,Integrated Beam Prototype 3,-0.046833 -0.046833 -0.046016 -0.046016 : 0.009751 0.009751 0.048646 0.048646 : 0.451608 0.451608 0.359203 0.359203,med,89.0,15.0,0.0,0.0,25.0,0.0,9.0,1.7453561247141858,100.0,22.61931799862096,24.96563867712125,21.804288515050995,28.848023969812253,25.128955979727472,28.06418481874132,27.305093349704403,26.24055620630721,21.648855483006606
07_11,Raw Data\07_11\07_11_test_20.csv,,Integrated Beam Prototype 3,-0.046833 -0.046833 -0.046016 -0.046016 : 0.009751 0.009751 0.048646 0.048646 : 0.451608 0.451608 0.359203 0.359203,med,89.0,15.0,0.0,0.0,25.0,0.0,9.0,1.7453561247141858,100.0,23.53466770769135,22.69639494785385,21.18793847346604,26.6993031985221,24.779796389194694,30.349419382212524,26.255169451700013,26.508453306268883,22.567570763356507
07_11,Raw Data\07_11\07_11_test_21.csv,,Integrated Beam Prototype 3,-0.046833 -0.046833 -0.046016 -0.046016 : 0.009751 0.009751 0.048646 0.048646 : 0.451608 0.451608 0.359203 0.359203,med,89.0,15.0,0.0,0.0,25.0,0.0,9.0,1.7453561247141858,100.0,24.3610273273858,24.444742431786523,21.31923147161272,26.32347682016896,26.38395325783467,26.771665824892864,26.67924645683096,28.355789112716728,25.55444632315536
07_11,Raw Data\07_11\07_11_test_22.csv,,Integrated Beam Prototype 3,-0.046833 -0.046833 -0.046016 -0.046016 : 0.009751 0.009751 0.048646 0.048646 : 0.451608 0.451608 0.359203 0.359203,med,89.0,15.0,0.0,0.0,25.0,0.0,9.0,1.7453561247141858,100.0,24.040190760746345,25.44935072513095,25.708627485847835,28.54092813772171,27.00687310937717,27.99209532565969,26.976560690087272,25.408977795516783,25.57442741467277
07_11,Raw Data\07_11\07_11_test_23.csv,,Integrated Beam Prototype 3,-0.046833 -0.046833 -0.046016 -0.046016 : 0.009751 0.009751 0.048646 0.048646 : 0.451608 0.451608 0.359203 0.359203,med,89.0,15.0,0.0,0.0,25.0,0.0,9.0,1.7453561247141858,100.0,23.551844298449453,23.92030685035028,24.419986608260587,27.47751341576701,25.546070739636445,25.580518400841846,25.069023782419624,29.87885763942704,23.948301450380285
07_11,Raw Data\07_11\07_11_test_24.csv,,Integrated Beam Prototype 3,-0.046833 -0.046833 -0.046016 -0.046016 : 0.009751 0.009751 0.048646 0.048646 : 0.451608 0.451608 0.359203 0.359203,med,89.0,15.0,0.0,0.0,25.0,0.0,9.0,1.7453561247141858,100.0,27.057235457284094,22.281637117192663,22.40785683996233,26.701988325444564,25.93720848779528,27.81874144461981,27.890855134716944,28.19100513162635,23.12119712241984
07_11,Raw Data\07_11\07_11_test_25.csv,,Integrated Beam Prototype 3,-0.046833 -0.046833 -0.046016 -0.046016 : 0.009751 0.009751 0.048646 0.048646 : 0.451608 0.451608 0.359203 0.359203,med,89.0,15.0,0.0,0.0,25.0,0.0,9.0,1.7453561247141858,100.0,22.02111996136089,19.22865401923568,23.577704547204338,28.339310534025174,26.747684203744587,26.770710683663783,27.53781172589067,30.22721245525725,23.02489964340731
07_11,Raw Data\07_11\07_11_test_26.csv,,Integrated Beam Prototype 3,-0.046833 -0.046833 -0.046016 -0.046016 : 0.009751 0.009751 0.048646 0.048646 : 0.451608 0.451608 0.359203 0.359203,med,89.0,15.0,0.0,0.0,25.0,0.0,9.0,1.7453561247141858,100.0,23.628668430454063,24.157884207387923,25.20458513665457,28.119644832848216,26.54427626615623,26.76100419935662,24.75846410230361,26.94846390967201,23.06014500031806
07_11,Raw Data\07_11\07_11_test_27.csv,,Integrated Beam Prototype 3,-0.046833 -0.046833 -0.046016 -0.046016 : 0.009751 0.009751 0.048646 0.048646 : 0.451608 0.451608 0.359203 0.359203,med,89.0,15.0,0.0,0.0,25.0,0.0,9.0,1.7453561247141858,100.0,27.230030432889308,23.640756151395188,22.556540516558886,28.34816193606349,27.95993818577868,27.9413524373028,26.85853123986276,27.75197375067997,22.32271095449949
07_11,Raw Data\07_11\07_11_test_28.csv,,Integrated Beam Prototype 3,-0.046833 -0.046833 -0.046016 -0.046016 : 0.009751 0.009751 0.048646 0.048646 : 0.451608 0.451608 0.359203 0.359203,med,89.0,15.0,0.0,0.0,25.0,0.0,9.0,1.7453561247141858,100.0,24.67208387579386,26.387866059798608,22.32341395948817,27.984758057804616,23.38248429302147,29.414134396661737,28.361341967131413,25.950133048794363,21.375452617736475
07_11,Raw Data\07_11\07_11_test_29.csv,,Integrated Beam Prototype 3,-0.046833 -0.046833 -0.046016 -0.046016 : 0.009751 0.009751 0.048646 0.048646 : 0.451608 0.451608 0.359203 0.359203,med,89.0,15.0,0.0,0.0,25.0,0.0,9.0,1.7453561247141858,100.0,23.868351213762644,22.922511591857248,21.153674374386977,24.85866547256761,26.61517428336298,27.25256681681112,26.116221519581657,29.412217076051856,24.430448840604736
