Date,File,user_note,rodney configuration,sensor calibration (k d c),stalk array (lo med hi),sensor height (cm),sensor yaw (degrees),sensor pitch (degrees),sensor roll (degrees),rate of travel (ft/min),angle of travel (degrees),sensor offset (cm to gauge 2),positionDDT_tol,forceDDT_tol,Stalk1,Stalk2,Stalk3,Stalk4,Stalk5,Stalk6,Stalk7,Stalk8,Stalk9
07_03,Raw Data\07_03\07_03_test_11.csv,,Integrated Beam Prototype 1,-0.047269 -5e-06 -0.046184 5.6e-05 : 0.009066 -1.854254 0.052102 -0.06902 : 0.280633 0.004403 0.101502 0.014988,lo,88.0,20.0,0.0,0.0,25.0,0.0,12.0,0.7314105131717925,26.738002489610665,13.200655770677509,,10.075162096976584,6.168939928915455,7.79959673199438,9.594781874756508,16.34397983508947,7.910510433044263,13.48477518442268
07_03,Raw Data\07_03\07_03_test_12.csv,,Integrated Beam Prototype 1,-0.047269 -5e-06 -0.046184 5.6e-05 : 0.009066 -1.854254 0.052102 -0.06902 : 0.280633 0.004403 0.101502 0.014988,lo,88.0,20.0,0.0,0.0,25.0,0.0,12.0,0.7314105131717925,26.738002489610665,12.94020574282775,,12.04447742878861,5.02733605361037,7.356891004097685,12.23936559766783,12.66165912942931,6.639657956988057,10.827724323294063
07_03,Raw Data\07_03\07_03_test_13.csv,,Integrated Beam Prototype 1,-0.047269 -5e-06 -0.046184 5.6e-05 : 0.009066 -1.854254 0.052102 -0.06902 : 0.280633 0.004403 0.101502 0.014988,lo,88.0,20.0,0.0,0.0,25.0,0.0,12.0,0.7314105131717925,26.738002489610665,7.46274666035036,,11.614843101614245,8.533935785184921,5.318070074988614,5.194034681357764,14.502433030123752,7.949514533303239,13.905301432686294
07_03,Raw Data\07_03\07_03_test_14.csv,,Integrated Beam Prototype 1,-0.047269 -5e-06 -0.046184 5.6e-05 : 0.009066 -1.854254 0.052102 -0.06902 : 0.280633 0.004403 0.101502 0.014988,lo,88.0,20.0,0.0,0.0,25.0,0.0,12.0,0.7314105131717925,26.738002489610665,8.542115128045355,,14.58764823118923,2.942861825080668,4.958626470481561,5.779950994010543,10.525428897805323,6.058568233324406,12.874936709008368
07_03,Raw Data\07_03\07_03_test_15.csv,,Integrated Beam Prototype 1,-0.047269 -5e-06 -0.046184 5.6e-05 : 0.009066 -1.854254 0.052102 -0.06902 : 0.280633 0.004403 0.101502 0.014988,lo,88.0,20.0,0.0,0.0,25.0,0.0,12.0,0.7314105131717925,26.738002489610665,9.136625285487035,,22.05877461607302,5.013011213618168,9.404313660074044,7.577878324556162,8.974752430536702,7.280883531712104,11.261044677873466
07_03,Raw Data\07_03\07_03_test_16.csv,,Integrated Beam Prototype 1,-0.047269 -5e-06 -0.046184 5.6e-05 : 0.009066 -1.854254 0.052102 -0.06902 : 0.280633 0.004403 0.101502 0.014988,lo,88.0,20.0,0.0,0.0,25.0,0.0,12.0,0.7314105131717925,26.738002489610665,10.755222656860782,,10.397024926812342,6.5708627719034345,4.368078787950585,5.664012074675069,10.187701069498758,7.237572519169696,11.245065786717037
07_03,Raw Data\07_03\07_03_test_17.csv,,Integrated Beam Prototype 1,-0.047269 -5e-06 -0.046184 5.6e-05 : 0.009066 -1.854254 0.052102 -0.06902 : 0.280633 0.004403 0.101502 0.014988,lo,88.0,20.0,0.0,0.0,25.0,0.0,12.0,0.7314105131717925,26.738002489610665,9.028638520652835,,12.127145019075911,8.11714388975229,9.096708274690023,7.273509237446357,12.691252536075416,6.176347383901521,7.148807518969272
07_03,Raw Data\07_03\07_03_test_18.csv,,Integrated Beam Prototype 1,-0.047269 -5e-06 -0.046184 5.6e-05 : 0.009066 -1.854254 0.052102 -0.06902 : 0.280633 0.004403 0.101502 0.014988,lo,88.0,20.0,0.0,0.0,25.0,0.0,12.0,0.7314105131717925,26.738002489610665,8.952263839643953,,12.27885944458091,5.573680458635359,6.095598570587641,6.048729286783837,15.827047017054849,7.133160279618347,9.558348525482948
07_03,Raw Data\07_03\07_03_test_19.csv,,Integrated Beam Prototype 1,-0.047269 -5e-06 -0.046184 5.6e-05 : 0.009066 -1.854254 0.052102 -0.06902 : 0.280633 0.004403 0.101502 0.014988,lo,88.0,20.0,0.0,0.0,25.0,0.0,12.0,0.7314105131717925,26.738002489610665,14.088312936406242,,14.128302442672744,8.054720717034765,7.391130892768983,18.056387964574924,14.02964625012509,5.759405631158634,7.687688908031883
07_03,Raw Data\07_03\07_03_test_20.csv,,Integrated Beam Prototype 1,-0.047269 -5e-06 -0.046184 5.6e-05 : 0.009066 -1.854254 0.052102 -0.06902 : 0.280633 0.004403 0.101502 0.014988,lo,88.0,20.0,0.0,0.0,25.0,0.0,12.0,0.7314105131717925,26.738002489610665,10.027979328645213,,13.895513262813283,7.4441208896481905,5.596398254620857,9.342629022319848,20.100050851769485,6.372870247757417,9.785893845334414
07_03,Raw Data\07_03\07_03_test_21.csv,,Integrated Beam Prototype 1,-0.047269 -5e-06 -0.046184 5.6e-05 : 0.009066 -1.854254 0.052102 -0.06902 : 0.280633 0.004403 0.101502 0.014988,med,88.0,20.0,0.0,0.0,25.0,0.0,12.0,0.7058119128458493,45.30621640794213,15.741761307500427,15.224601146809176,14.257454915260224,16.713621737003567,18.37172014238772,18.04348662257308,17.72418337454148,21.6247323453876,15.404684817313592
07_03,Raw Data\07_03\07_03_test_22.csv,,Integrated Beam Prototype 1,-0.047269 -5e-06 -0.046184 5.6e-05 : 0.009066 -1.854254 0.052102 -0.06902 : 0.280633 0.004403 0.101502 0.014988,med,88.0,20.0,0.0,0.0,25.0,0.0,12.0,0.7058119128458493,45.30621640794213,14.984852293889594,17.181276312422668,16.118973730699917,17.924036928277864,16.542116450955984,20.40386949090952,16.630195899850666,17.79712689708215,17.524393731249553
07_03,Raw Data\07_03\07_03_test_23.csv,,Integrated Beam Prototype 1,-0.047269 -5e-06 -0.046184 5.6e-05 : 0.009066 -1.854254 0.052102 -0.06902 : 0.280633 0.004403 0.101502 0.014988,med,88.0,20.0,0.0,0.0,25.0,0.0,12.0,0.7058119128458493,45.30621640794213,15.61155758047737,15.206784442207036,15.342946578175813,18.653890335606047,15.152322827174498,17.789946772500567,18.31295215068496,18.414085070001867,15.573687770473116
07_03,Raw Data\07_03\07_03_test_24.csv,,Integrated Beam Prototype 1,-0.047269 -5e-06 -0.046184 5.6e-05 : 0.009066 -1.854254 0.052102 -0.06902 : 0.280633 0.004403 0.101502 0.014988,med,88.0,20.0,0.0,0.0,25.0,0.0,12.0,0.7058119128458493,45.30621640794213,16.58292031578012,16.394790185226896,14.69082233295648,22.377278086671783,19.335382408035617,17.34284497993509,18.019717665669567,19.85410639210499,16.093102101347007
07_03,Raw Data\07_03\07_03_test_25.csv,,Integrated Beam Prototype 1,-0.047269 -5e-06 -0.046184 5.6e-05 : 0.009066 -1.854254 0.052102 -0.06902 : 0.280633 0.004403 0.101502 0.014988,med,88.0,20.0,0.0,0.0,25.0,0.0,12.0,0.7058119128458493,45.30621640794213,15.710443031977988,15.13279772857111,16.921825528478507,18.725782993529617,17.862369550261274,14.980329203495408,17.808685043336308,16.93358531539642,16.16117418430506
07_03,Raw Data\07_03\07_03_test_26.csv,,Integrated Beam Prototype 1,-0.047269 -5e-06 -0.046184 5.6e-05 : 0.009066 -1.854254 0.052102 -0.06902 : 0.280633 0.004403 0.101502 0.014988,med,88.0,20.0,0.0,0.0,25.0,0.0,12.0,0.7058119128458493,45.30621640794213,15.78716759049981,15.39034685236507,14.360378559488714,17.158284153394817,17.70699399411426,15.753175027045556,15.953249807288849,16.34396615835685,12.849013787706191
07_03,Raw Data\07_03\07_03_test_27.csv,,Integrated Beam Prototype 1,-0.047269 -5e-06 -0.046184 5.6e-05 : 0.009066 -1.854254 0.052102 -0.06902 : 0.280633 0.004403 0.101502 0.014988,med,88.0,20.0,0.0,0.0,25.0,0.0,12.0,0.7058119128458493,45.30621640794213,17.040538766337843,17.91371780823082,15.341026691942918,18.407380377620782,16.61708394332649,15.588065961012752,17.18668881753006,18.91995615413385,13.374646379677436
07_03,Raw Data\07_03\07_03_test_28.csv,,Integrated Beam Prototype 1,-0.047269 -5e-06 -0.046184 5.6e-05 : 0.009066 -1.854254 0.052102 -0.06902 : 0.280633 0.004403 0.101502 0.014988,med,88.0,20.0,0.0,0.0,25.0,0.0,12.0,0.7058119128458493,45.30621640794213,16.39154754688771,18.42304269696493,14.377090754496166,19.15913640985308,17.452494586635613,18.64333205193988,17.765601508420023,22.739207061030484,15.542575121440956
07_03,Raw Data\07_03\07_03_test_29.csv,,Integrated Beam Prototype 1,-0.047269 -5e-06 -0.046184 5.6e-05 : 0.009066 -1.854254 0.052102 -0.06902 : 0.280633 0.004403 0.101502 0.014988,med,88.0,20.0,0.0,0.0,25.0,0.0,12.0,0.7058119128458493,45.30621640794213,16.011862153849155,15.776337085477442,16.803493208842127,19.01910457977581,16.66874186957675,17.806769946773514,16.63723081372863,20.48337526775349,15.9427354694415
07_03,Raw Data\07_03\07_03_test_30.csv,,Integrated Beam Prototype 1,-0.047269 -5e-06 -0.046184 5.6e-05 : 0.009066 -1.854254 0.052102 -0.06902 : 0.280633 0.004403 0.101502 0.014988,med,88.0,20.0,0.0,0.0,25.0,0.0,12.0,0.7058119128458493,45.30621640794213,14.995681620932004,17.14267825545288,15.24559450796558,19.291163970703607,16.591981372837047,16.080178959392764,15.298216921284638,17.068533733130714,16.06094863258173
07_03,Raw Data\07_03\07_03_test_31.csv,,Integrated Beam Prototype 1,-0.047269 -5e-06 -0.046184 5.6e-05 : 0.009066 -1.854254 0.052102 -0.06902 : 0.280633 0.004403 0.101502 0.014988,hi,88.0,20.0,0.0,0.0,25.0,0.0,12.0,0.7624043203795391,49.542250432958205,25.050282773721165,22.02132796182351,20.75056463540789,27.554269840022023,26.18756191041017,27.134249547297184,27.77682602736864,28.791378641433624,25.79105726660632
07_03,Raw Data\07_03\07_03_test_32.csv,,Integrated Beam Prototype 1,-0.047269 -5e-06 -0.046184 5.6e-05 : 0.009066 -1.854254 0.052102 -0.06902 : 0.280633 0.004403 0.101502 0.014988,hi,88.0,20.0,0.0,0.0,25.0,0.0,12.0,0.7624043203795391,49.542250432958205,27.42431025064121,23.53971917569865,21.88498389404524,26.50210525735058,26.5046765528421,29.22412711926228,27.376969363267072,28.447645643915777,27.05781708973234
07_03,Raw Data\07_03\07_03_test_33.csv,,Integrated Beam Prototype 1,-0.047269 -5e-06 -0.046184 5.6e-05 : 0.009066 -1.854254 0.052102 -0.06902 : 0.280633 0.004403 0.101502 0.014988,hi,88.0,20.0,0.0,0.0,25.0,0.0,12.0,0.7624043203795391,49.542250432958205,28.34022806356714,23.15681665005465,23.51963926815145,27.873278333034527,28.321433008041154,26.155429929402388,27.9274731140862,26.55293727640626,25.92894593129426
07_03,Raw Data\07_03\07_03_test_34.csv,,Integrated Beam Prototype 1,-0.047269 -5e-06 -0.046184 5.6e-05 : 0.009066 -1.854254 0.052102 -0.06902 : 0.280633 0.004403 0.101502 0.014988,hi,88.0,20.0,0.0,0.0,25.0,0.0,12.0,0.7624043203795391,49.542250432958205,27.35226545774965,24.55800439064428,22.508697339558093,28.62119128910077,28.335766373411573,27.890800956310528,26.85554266478781,27.742249970634425,24.83421666333337
07_03,Raw Data\07_03\07_03_test_35.csv,,Integrated Beam Prototype 1,-0.047269 -5e-06 -0.046184 5.6e-05 : 0.009066 -1.854254 0.052102 -0.06902 : 0.280633 0.004403 0.101502 0.014988,hi,88.0,20.0,0.0,0.0,25.0,0.0,12.0,0.7624043203795391,49.542250432958205,27.125847204774782,24.264962136757948,22.75882375789243,30.4772378699933,26.08529873972069,27.21245458675268,28.08979437977061,27.31673094024339,27.434318457577184
07_03,Raw Data\07_03\07_03_test_36.csv,,Integrated Beam Prototype 1,-0.047269 -5e-06 -0.046184 5.6e-05 : 0.009066 -1.854254 0.052102 -0.06902 : 0.280633 0.004403 0.101502 0.014988,hi,88.0,20.0,0.0,0.0,25.0,0.0,12.0,0.7624043203795391,49.542250432958205,29.77781878503964,23.60681115467415,21.95942681399037,29.033098805668924,25.972994489581104,30.91604293620484,27.06906182103965,28.104924564202328,27.679434015544416
07_03,Raw Data\07_03\07_03_test_37.csv,,Integrated Beam Prototype 1,-0.047269 -5e-06 -0.046184 5.6e-05 : 0.009066 -1.854254 0.052102 -0.06902 : 0.280633 0.004403 0.101502 0.014988,hi,88.0,20.0,0.0,0.0,25.0,0.0,12.0,0.7624043203795391,49.542250432958205,24.40832429069771,20.17255834507192,21.363682722104475,25.272811050227308,24.65904102025525,25.0992773762272,25.23680814960954,28.36150006209056,28.738013561530146
07_03,Raw Data\07_03\07_03_test_38.csv,,Integrated Beam Prototype 1,-0.047269 -5e-06 -0.046184 5.6e-05 : 0.009066 -1.854254 0.052102 -0.06902 : 0.280633 0.004403 0.101502 0.014988,hi,88.0,20.0,0.0,0.0,25.0,0.0,12.0,0.7624043203795391,49.542250432958205,28.64046610954041,24.37159805899305,22.89287412698525,26.29793437148398,26.0208463112818,28.025819577007805,28.70227261930398,30.622095465874928,23.317405755606643
07_03,Raw Data\07_03\07_03_test_39.csv,,Integrated Beam Prototype 1,-0.047269 -5e-06 -0.046184 5.6e-05 : 0.009066 -1.854254 0.052102 -0.06902 : 0.280633 0.004403 0.101502 0.014988,hi,88.0,20.0,0.0,0.0,25.0,0.0,12.0,0.7624043203795391,49.542250432958205,29.355233591896702,23.39586255038005,22.170815578129584,26.22242822982785,27.217705917085368,26.238505552207247,25.97347665521855,27.84400489003367,27.86162708553074
07_03,Raw Data\07_03\07_03_test_40.csv,,Integrated Beam Prototype 1,-0.047269 -5e-06 -0.046184 5.6e-05 : 0.009066 -1.854254 0.052102 -0.06902 : 0.280633 0.004403 0.101502 0.014988,hi,88.0,20.0,0.0,0.0,25.0,0.0,12.0,0.7624043203795391,49.542250432958205,28.053472913924,24.841390578525463,25.156588844191173,28.28182695356861,27.158930996436336,26.14852488106133,24.81067139576712,26.57998403281041,24.99138825417576
07_10,Raw Data\07_10\07_10_test_1.csv,,Integrated Beam Prototype 2,-0.046833 -0.046833 -0.046016 -0.046016 : 0.009751 0.009751 0.048646 0.048646 : 0.451608 0.451608 0.359203 0.359203,hi,88.9,20.0,0.0,0.0,25.0,0.0,7.5,0.4354402008858133,36.55187570633319,35.8474078325637,29.81130230877261,31.0524484900817,37.51352873893949,35.11469717496082,35.35182621522823,33.98724860114915,33.570918406413725,30.78496392006648
07_10,Raw Data\07_10\07_10_test_10.csv,,Integrated Beam Prototype 2,-0.046833 -0.046833 -0.046016 -0.046016 : 0.009751 0.009751 0.048646 0.048646 : 0.451608 0.451608 0.359203 0.359203,hi,88.9,20.0,0.0,0.0,25.0,0.0,7.5,0.4354402008858133,36.55187570633319,31.778359835529983,31.51275091033608,28.71348569971956,36.4086119144608,35.33462245850785,36.79491307055613,37.86672483212818,30.192993405878948,30.073078091099244
07_10,Raw Data\07_10\07_10_test_11.csv,,Integrated Beam Prototype 2,-0.046833 -0.046833 -0.046016 -0.046016 : 0.009751 0.009751 0.048646 0.048646 : 0.451608 0.451608 0.359203 0.359203,hi,88.9,20.0,0.0,0.0,25.0,0.0,7.5,0.4354402008858133,36.55187570633319,35.4562174798591,31.218381386542745,30.248950153544275,29.790902396887525,36.689386335651896,38.73885710890871,35.176650005863266,30.72793552227316,32.62412098310942
07_10,Raw Data\07_10\07_10_test_12.csv,,Integrated Beam Prototype 2,-0.046833 -0.046833 -0.046016 -0.046016 : 0.009751 0.009751 0.048646 0.048646 : 0.451608 0.451608 0.359203 0.359203,hi,88.9,20.0,0.0,0.0,25.0,0.0,7.5,0.4354402008858133,36.55187570633319,34.72360579716828,34.50168899302487,28.393723591188103,33.87268352013655,32.874609690485805,38.55802864765004,35.113011956682854,34.24733106166809,27.732506424135867
07_10,Raw Data\07_10\07_10_test_13.csv,,Integrated Beam Prototype 2,-0.046833 -0.046833 -0.046016 -0.046016 : 0.009751 0.009751 0.048646 0.048646 : 0.451608 0.451608 0.359203 0.359203,hi,88.9,20.0,0.0,0.0,25.0,0.0,7.5,0.4354402008858133,36.55187570633319,35.99433952398831,28.365428015962348,33.258994622961126,37.145056862041166,33.03478241827142,37.64972358133512,30.42624898000244,35.619011152820306,31.936331764555003
07_10,Raw Data\07_10\07_10_test_14.csv,,Integrated Beam Prototype 2,-0.046833 -0.046833 -0.046016 -0.046016 : 0.009751 0.009751 0.048646 0.048646 : 0.451608 0.451608 0.359203 0.359203,hi,88.9,20.0,0.0,0.0,25.0,0.0,7.5,0.4354402008858133,36.55187570633319,34.48171851961973,28.59639996276001,31.323281275042824,40.27644033195989,35.965634845945694,33.613000171803584,38.5194173193792,35.25023537320451,28.778951178307224
07_10,Raw Data\07_10\07_10_test_15.csv,,Integrated Beam Prototype 2,-0.046833 -0.046833 -0.046016 -0.046016 : 0.009751 0.009751 0.048646 0.048646 : 0.451608 0.451608 0.359203 0.359203,hi,88.9,20.0,0.0,0.0,25.0,0.0,7.5,0.4354402008858133,36.55187570633319,35.71056358827217,33.46463749933643,32.665418060862045,33.91783871628796,36.84073590955263,37.62370981076756,32.33750028886096,27.241113660917748,33.21502862355181
07_10,Raw Data\07_10\07_10_test_16.csv,,Integrated Beam Prototype 2,-0.046833 -0.046833 -0.046016 -0.046016 : 0.009751 0.009751 0.048646 0.048646 : 0.451608 0.451608 0.359203 0.359203,med,89.0,20.0,0.0,0.0,25.0,0.0,9.0,0.7713784395584511,46.94040452126231,21.557884821874243,19.735520153103472,21.49857588742576,26.269856875493726,24.61750300035205,24.594788268610024,25.83798156838064,25.73867460821939,24.285010178650747
07_10,Raw Data\07_10\07_10_test_17.csv,,Integrated Beam Prototype 2,-0.046833 -0.046833 -0.046016 -0.046016 : 0.009751 0.009751 0.048646 0.048646 : 0.451608 0.451608 0.359203 0.359203,med,89.0,20.0,0.0,0.0,25.0,0.0,9.0,0.7713784395584511,46.94040452126231,21.28152107995797,20.9244829415544,22.075701666115943,24.869037040847463,22.02645550063372,23.566059361710693,24.25521303417988,25.08835593143248,20.486980919156043
07_10,Raw Data\07_10\07_10_test_18.csv,,Integrated Beam Prototype 2,-0.046833 -0.046833 -0.046016 -0.046016 : 0.009751 0.009751 0.048646 0.048646 : 0.451608 0.451608 0.359203 0.359203,med,89.0,20.0,0.0,0.0,25.0,0.0,9.0,0.7713784395584511,46.94040452126231,20.420732736706395,20.891196897633165,19.097434784159383,26.15028043585601,25.382846067710616,26.83243595934688,22.146475782806675,27.182320322856047,22.67437039660088
07_10,Raw Data\07_10\07_10_test_19.csv,,Integrated Beam Prototype 2,-0.046833 -0.046833 -0.046016 -0.046016 : 0.009751 0.009751 0.048646 0.048646 : 0.451608 0.451608 0.359203 0.359203,med,89.0,20.0,0.0,0.0,25.0,0.0,9.0,0.7713784395584511,46.94040452126231,17.88464337719338,19.456183383105657,20.2779126283272,23.29790679158496,23.300775435116453,24.209902000151462,23.0502598972556,25.51364037500933,24.183113047846955
07_10,Raw Data\07_10\07_10_test_2.csv,,Integrated Beam Prototype 2,-0.046833 -0.046833 -0.046016 -0.046016 : 0.009751 0.009751 0.048646 0.048646 : 0.451608 0.451608 0.359203 0.359203,hi,88.9,20.0,0.0,0.0,25.0,0.0,7.5,0.4354402008858133,36.55187570633319,31.30877231566477,32.13515442882942,34.45615769824627,37.90502459551159,37.151938095780686,33.5309189720858,34.38964843782071,28.66298268418637,30.243968792297885
07_10,Raw Data\07_10\07_10_test_20.csv,,Integrated Beam Prototype 2,-0.046833 -0.046833 -0.046016 -0.046016 : 0.009751 0.009751 0.048646 0.048646 : 0.451608 0.451608 0.359203 0.359203,med,89.0,20.0,0.0,0.0,25.0,0.0,9.0,0.7713784395584511,46.94040452126231,19.8632952885692,19.409416714129687,19.78721982822185,21.66920373183688,24.41067193736175,23.138605040224487,22.4638549374482,24.176432023373348,20.84472374503928
07_10,Raw Data\07_10\07_10_test_21.csv,,Integrated Beam Prototype 2,-0.046833 -0.046833 -0.046016 -0.046016 : 0.009751 0.009751 0.048646 0.048646 : 0.451608 0.451608 0.359203 0.359203,med,89.0,20.0,0.0,0.0,25.0,0.0,9.0,0.7713784395584511,46.94040452126231,25.8849254067648,19.71234285978236,20.705794873355472,23.693994726419408,23.417296105182142,25.279622186581737,25.147726240581,21.59549058473187,19.242937682701484
07_10,Raw Data\07_10\07_10_test_22.csv,,Integrated Beam Prototype 2,-0.046833 -0.046833 -0.046016 -0.046016 : 0.009751 0.009751 0.048646 0.048646 : 0.451608 0.451608 0.359203 0.359203,med,89.0,20.0,0.0,0.0,25.0,0.0,9.0,0.7713784395584511,46.94040452126231,21.568462870680023,18.59030550891787,18.701521724470023,25.01274339108057,22.89897632582821,22.64878648249248,20.16486745358791,26.03871436738964,23.33070691391797
07_10,Raw Data\07_10\07_10_test_23.csv,,Integrated Beam Prototype 2,-0.046833 -0.046833 -0.046016 -0.046016 : 0.009751 0.009751 0.048646 0.048646 : 0.451608 0.451608 0.359203 0.359203,med,89.0,20.0,0.0,0.0,25.0,0.0,9.0,0.7713784395584511,46.94040452126231,18.3545847837558,20.908632333507136,20.935541714497056,25.462352107572936,22.746432842541605,21.84123188007639,23.07963112456066,22.834955139044524,22.93244232398493
07_10,Raw Data\07_10\07_10_test_24.csv,,Integrated Beam Prototype 2,-0.046833 -0.046833 -0.046016 -0.046016 : 0.009751 0.009751 0.048646 0.048646 : 0.451608 0.451608 0.359203 0.359203,med,89.0,20.0,0.0,0.0,25.0,0.0,9.0,0.7713784395584511,46.94040452126231,21.45857457854405,18.52061079155723,19.852590745562384,24.81182547560348,23.334574499389653,23.988733997162125,20.05012565266357,24.94289408775569,23.898673194027666
07_10,Raw Data\07_10\07_10_test_25.csv,,Integrated Beam Prototype 2,-0.046833 -0.046833 -0.046016 -0.046016 : 0.009751 0.009751 0.048646 0.048646 : 0.451608 0.451608 0.359203 0.359203,med,89.0,20.0,0.0,0.0,25.0,0.0,9.0,0.7713784395584511,46.94040452126231,22.95502431758634,19.551920719112267,19.158094155459786,25.0264477359972,21.928324411809967,22.864221946159084,21.557449331904,25.4975560620921,19.21218557764169
07_10,Raw Data\07_10\07_10_test_26.csv,,Integrated Beam Prototype 2,-0.046833 -0.046833 -0.046016 -0.046016 : 0.009751 0.009751 0.048646 0.048646 : 0.451608 0.451608 0.359203 0.359203,med,89.0,20.0,0.0,0.0,25.0,0.0,9.0,0.7713784395584511,46.94040452126231,20.14097405257161,19.36019496600988,19.78997555805702,25.53710202725061,23.741025632437605,25.69265527748861,21.439960499735783,24.251445343822446,21.72573915809076
07_10,Raw Data\07_10\07_10_test_27.csv,,Integrated Beam Prototype 2,-0.046833 -0.046833 -0.046016 -0.046016 : 0.009751 0.009751 0.048646 0.048646 : 0.451608 0.451608 0.359203 0.359203,med,89.0,20.0,0.0,0.0,25.0,0.0,9.0,0.7713784395584511,46.94040452126231,21.387433444079885,21.84441989517132,20.555791151992,25.51489427454872,22.070557183065564,24.54094978984749,21.34155397329712,24.588031030844164,21.65525224150648
07_10,Raw Data\07_10\07_10_test_28.csv,,Integrated Beam Prototype 2,-0.046833 -0.046833 -0.046016 -0.046016 : 0.009751 0.009751 0.048646 0.048646 : 0.451608 0.451608 0.359203 0.359203,med,89.0,20.0,0.0,0.0,25.0,0.0,9.0,0.7713784395584511,46.94040452126231,20.6325785644436,20.535824014880788,20.773357075790813,25.817204374204863,23.889534867819584,21.76174562323934,23.518309993549533,23.194151659685705,22.280757998792765
07_10,Raw Data\07_10\07_10_test_29.csv,,Integrated Beam Prototype 2,-0.046833 -0.046833 -0.046016 -0.046016 : 0.009751 0.009751 0.048646 0.048646 : 0.451608 0.451608 0.359203 0.359203,med,89.0,20.0,0.0,0.0,25.0,0.0,9.0,0.7713784395584511,46.94040452126231,23.50675268108408,21.92213246850853,19.20738556928731,27.423507940605088,20.38935863290477,24.69619299452913,21.02075790761205,23.62272459613417,20.446650844348383
07_10,Raw Data\07_10\07_10_test_3.csv,,Integrated Beam Prototype 2,-0.046833 -0.046833 -0.046016 -0.046016 : 0.009751 0.009751 0.048646 0.048646 : 0.451608 0.451608 0.359203 0.359203,hi,88.9,20.0,0.0,0.0,25.0,0.0,7.5,0.4354402008858133,36.55187570633319,34.467579183166315,29.12882581135937,30.36065077004004,33.78703764843408,39.45891977233618,38.93431481882707,34.0411398061569,27.839661008302365,31.457926027166383
07_10,Raw Data\07_10\07_10_test_30.csv,,Integrated Beam Prototype 2,-0.046833 -0.046833 -0.046016 -0.046016 : 0.009751 0.009751 0.048646 0.048646 : 0.451608 0.451608 0.359203 0.359203,med,89.0,20.0,0.0,0.0,25.0,0.0,9.0,0.7713784395584511,46.94040452126231,20.83245193865608,22.17076996475848,16.69776050558629,24.160477661479177,22.101169758349464,22.02505467635788,23.304662832258863,22.96391625876797,18.14763539040346
07_10,Raw Data\07_10\07_10_test_31.csv,,Integrated Beam Prototype 2,-0.046833 -0.046833 -0.046016 -0.046016 : 0.009751 0.009751 0.048646 0.048646 : 0.451608 0.451608 0.359203 0.359203,lo,89.0,20.0,0.0,0.0,25.0,0.0,9.5,1.3831205066791254,45.14275400229281,16.705584306868587,15.218793127507588,14.952254587511288,8.177525002009336,3.6560101334345614,5.256446559889092,13.509296690959191,7.760085279975723,8.709339016595516
07_10,Raw Data\07_10\07_10_test_32.csv,,Integrated Beam Prototype 2,-0.046833 -0.046833 -0.046016 -0.046016 : 0.009751 0.009751 0.048646 0.048646 : 0.451608 0.451608 0.359203 0.359203,lo,89.0,20.0,0.0,0.0,25.0,0.0,9.5,1.3831205066791254,45.14275400229281,14.390683739788102,18.62034359547055,18.060855886975848,7.523499697109972,4.177950285316471,8.020490509741284,18.210498687904,7.01063594100584,12.620439029291358
07_10,Raw Data\07_10\07_10_test_33.csv,,Integrated Beam Prototype 2,-0.046833 -0.046833 -0.046016 -0.046016 : 0.009751 0.009751 0.048646 0.048646 : 0.451608 0.451608 0.359203 0.359203,lo,89.0,20.0,0.0,0.0,25.0,0.0,9.5,1.3831205066791254,45.14275400229281,14.811848995647171,17.153714010929214,19.856729970428614,7.330329343675701,6.647608878467036,10.224465755680438,15.35444840792032,9.515456313208873,10.159208882999115
07_10,Raw Data\07_10\07_10_test_34.csv,,Integrated Beam Prototype 2,-0.046833 -0.046833 -0.046016 -0.046016 : 0.009751 0.009751 0.048646 0.048646 : 0.451608 0.451608 0.359203 0.359203,lo,89.0,20.0,0.0,0.0,25.0,0.0,9.5,1.3831205066791254,45.14275400229281,13.311547631798373,19.768388979303875,15.528471765922172,8.506286834618452,4.603325500248817,8.449039641564642,22.71494974917256,5.870365825418412,10.170594512990585
07_10,Raw Data\07_10\07_10_test_35.csv,,Integrated Beam Prototype 2,-0.046833 -0.046833 -0.046016 -0.046016 : 0.009751 0.009751 0.048646 0.048646 : 0.451608 0.451608 0.359203 0.359203,lo,89.0,20.0,0.0,0.0,25.0,0.0,9.5,1.3831205066791254,45.14275400229281,16.24278219013137,14.319564851805795,18.044490078468613,6.496892843754229,5.826018488173816,8.699697935557227,21.96594747299743,7.818384684513104,10.858029133093009
07_10,Raw Data\07_10\07_10_test_36.csv,,Integrated Beam Prototype 2,-0.046833 -0.046833 -0.046016 -0.046016 : 0.009751 0.009751 0.048646 0.048646 : 0.451608 0.451608 0.359203 0.359203,lo,89.0,20.0,0.0,0.0,25.0,0.0,9.5,1.3831205066791254,45.14275400229281,14.626993903916372,16.53782240206073,14.91279892474569,7.732891207126263,12.014119104181098,9.198098112933517,28.55951627987576,6.664003759873817,13.79376511288554
07_10,Raw Data\07_10\07_10_test_37.csv,,Integrated Beam Prototype 2,-0.046833 -0.046833 -0.046016 -0.046016 : 0.009751 0.009751 0.048646 0.048646 : 0.451608 0.451608 0.359203 0.359203,lo,89.0,20.0,0.0,0.0,25.0,0.0,9.5,1.3831205066791254,45.14275400229281,14.788033081270813,14.516311486175704,15.636890054821224,8.35793390601325,5.609557487300076,4.589855326377477,22.804422468952183,7.745030186002476,9.644539249896606
07_10,Raw Data\07_10\07_10_test_38.csv,,Integrated Beam Prototype 2,-0.046833 -0.046833 -0.046016 -0.046016 : 0.009751 0.009751 0.048646 0.048646 : 0.451608 0.451608 0.359203 0.359203,lo,89.0,20.0,0.0,0.0,25.0,0.0,9.5,1.3831205066791254,45.14275400229281,13.859804268496775,13.684952626406403,20.812025370553137,5.392801670179584,5.822194253246435,8.816204724869506,21.3613905510745,7.046627126287639,9.51271641011013
07_10,Raw Data\07_10\07_10_test_39.csv,,Integrated Beam Prototype 2,-0.046833 -0.046833 -0.046016 -0.046016 : 0.009751 0.009751 0.048646 0.048646 : 0.451608 0.451608 0.359203 0.359203,lo,89.0,20.0,0.0,0.0,25.0,0.0,9.5,1.3831205066791254,45.14275400229281,15.110862799598882,14.627950165054306,18.41520743126796,6.927282086526565,7.675891686931291,8.547520924774533,22.193649458124938,7.403080884449066,11.675746953232752
07_10,Raw Data\07_10\07_10_test_4.csv,,Integrated Beam Prototype 2,-0.046833 -0.046833 -0.046016 -0.046016 : 0.009751 0.009751 0.048646 0.048646 : 0.451608 0.451608 0.359203 0.359203,hi,88.9,20.0,0.0,0.0,25.0,0.0,7.5,0.4354402008858133,36.55187570633319,31.705636486159488,28.09069167664581,33.247013487063874,32.9654970435207,34.928123242982615,35.98919756375501,33.39074655648067,29.24935425713652,29.08544185602073
07_10,Raw Data\07_10\07_10_test_40.csv,,Integrated Beam Prototype 2,-0.046833 -0.046833 -0.046016 -0.046016 : 0.009751 0.009751 0.048646 0.048646 : 0.451608 0.451608 0.359203 0.359203,lo,89.0,20.0,0.0,0.0,25.0,0.0,9.5,1.3831205066791254,45.14275400229281,15.861481901363064,14.76751743444531,16.52305639532042,9.843684686956552,8.113494147266266,7.528080688105607,23.844181140716803,9.582963395127331,12.808669834177806
07_10,Raw Data\07_10\07_10_test_41.csv,,Integrated Beam Prototype 2,-0.046833 -0.046833 -0.046016 -0.046016 : 0.009751 0.009751 0.048646 0.048646 : 0.451608 0.451608 0.359203 0.359203,lo,89.0,20.0,0.0,0.0,25.0,0.0,9.5,1.3831205066791254,45.14275400229281,14.398965721303671,16.658004221356368,16.1901124181217,7.154373664860175,6.921118458295966,9.458840900049514,24.219337296351146,10.169358483805263,11.491735313531578
07_10,Raw Data\07_10\07_10_test_42.csv,,Integrated Beam Prototype 2,-0.046833 -0.046833 -0.046016 -0.046016 : 0.009751 0.009751 0.048646 0.048646 : 0.451608 0.451608 0.359203 0.359203,lo,89.0,20.0,0.0,0.0,25.0,0.0,9.5,1.3831205066791254,45.14275400229281,13.682468180291192,15.71912288231966,18.287291751159795,7.534056616984314,4.978395367069621,7.8456302886244735,22.837503227593253,8.525524207024475,10.7931314601124
07_10,Raw Data\07_10\07_10_test_43.csv,,Integrated Beam Prototype 2,-0.046833 -0.046833 -0.046016 -0.046016 : 0.009751 0.009751 0.048646 0.048646 : 0.451608 0.451608 0.359203 0.359203,lo,89.0,20.0,0.0,0.0,25.0,0.0,9.5,1.3831205066791254,45.14275400229281,13.330051889314287,15.78334221895603,18.12554875958355,8.451068144194444,6.850950286146037,6.663047185676235,17.889164733198612,8.291331016658088,11.51685660739196
07_10,Raw Data\07_10\07_10_test_44.csv,,Integrated Beam Prototype 2,-0.046833 -0.046833 -0.046016 -0.046016 : 0.009751 0.009751 0.048646 0.048646 : 0.451608 0.451608 0.359203 0.359203,lo,89.0,20.0,0.0,0.0,25.0,0.0,9.5,1.3831205066791254,45.14275400229281,15.251333975829418,14.544104233043614,18.7852983436847,7.409147297980176,7.282327912748156,9.498784620148497,24.13284488970556,7.373496737421666,10.027933339715036
07_10,Raw Data\07_10\07_10_test_45.csv,,Integrated Beam Prototype 2,-0.046833 -0.046833 -0.046016 -0.046016 : 0.009751 0.009751 0.048646 0.048646 : 0.451608 0.451608 0.359203 0.359203,lo,89.0,20.0,0.0,0.0,25.0,0.0,9.5,1.3831205066791254,45.14275400229281,14.820603741665812,14.54483545964155,14.964473212224306,8.076642774768706,7.378467103009332,9.832578236453202,24.71925063711719,9.517154419405037,13.226853426239632
07_10,Raw Data\07_10\07_10_test_5.csv,,Integrated Beam Prototype 2,-0.046833 -0.046833 -0.046016 -0.046016 : 0.009751 0.009751 0.048646 0.048646 : 0.451608 0.451608 0.359203 0.359203,hi,88.9,20.0,0.0,0.0,25.0,0.0,7.5,0.4354402008858133,36.55187570633319,37.785878607625015,30.96635846086164,32.31246237408457,33.87617875581359,34.190229188596646,38.80600819303626,34.67617074230479,37.61039162943376,34.79910411251995
07_10,Raw Data\07_10\07_10_test_6.csv,,Integrated Beam Prototype 2,-0.046833 -0.046833 -0.046016 -0.046016 : 0.009751 0.009751 0.048646 0.048646 : 0.451608 0.451608 0.359203 0.359203,hi,88.9,20.0,0.0,0.0,25.0,0.0,7.5,0.4354402008858133,36.55187570633319,31.21016937021803,29.285914774468548,32.57632878737438,32.80910055969383,34.791068620361855,34.16017429047504,33.019653104706315,28.60137307167677,31.62453366466886
07_10,Raw Data\07_10\07_10_test_7.csv,,Integrated Beam Prototype 2,-0.046833 -0.046833 -0.046016 -0.046016 : 0.009751 0.009751 0.048646 0.048646 : 0.451608 0.451608 0.359203 0.359203,hi,88.9,20.0,0.0,0.0,25.0,0.0,7.5,0.4354402008858133,36.55187570633319,34.63857228381738,28.4125550509456,34.49637443094127,32.06762275772365,34.20224739988216,35.565811260488594,31.657798554563644,28.73677084552996,33.9554617606192
07_10,Raw Data\07_10\07_10_test_8.csv,,Integrated Beam Prototype 2,-0.046833 -0.046833 -0.046016 -0.046016 : 0.009751 0.009751 0.048646 0.048646 : 0.451608 0.451608 0.359203 0.359203,hi,88.9,20.0,0.0,0.0,25.0,0.0,7.5,0.4354402008858133,36.55187570633319,34.19861072618915,29.81679879945312,28.071975706132683,36.80702545965649,34.193475971598616,35.530171991102705,34.35494264946026,27.44809936440524,31.49910424796112
07_10,Raw Data\07_10\07_10_test_9.csv,,Integrated Beam Prototype 2,-0.046833 -0.046833 -0.046016 -0.046016 : 0.009751 0.009751 0.048646 0.048646 : 0.451608 0.451608 0.359203 0.359203,hi,88.9,20.0,0.0,0.0,25.0,0.0,7.5,0.4354402008858133,36.55187570633319,36.516419071875646,28.445897180986684,31.79717400832072,35.80837317545558,35.26747925852711,34.851129839222374,33.41941657287182,29.77548421284841,35.66488331342017
07_10,Raw Data\07_10\07_10_test_101.csv,,Integrated Beam Prototype 3,-0.046833 -0.046833 -0.046016 -0.046016 : 0.009751 0.009751 0.048646 0.048646 : 0.451608 0.451608 0.359203 0.359203,lo,89.0,15.0,0.0,0.0,25.0,0.0,9.5,1.974695902798076,23.26072645083048,20.41195816577401,17.662108194958968,18.14987610235624,12.066333408069468,4.140478424490029,10.311858005864948,14.605407400725584,8.924912838778384,15.671487797327254
07_10,Raw Data\07_10\07_10_test_102.csv,,Integrated Beam Prototype 3,-0.046833 -0.046833 -0.046016 -0.046016 : 0.009751 0.009751 0.048646 0.048646 : 0.451608 0.451608 0.359203 0.359203,lo,89.0,15.0,0.0,0.0,25.0,0.0,9.5,1.974695902798076,23.26072645083048,19.27953793264476,20.56367855935341,19.15854472475305,10.381184798538934,11.848729105858888,7.803753046414696,33.147016909545684,9.044782996767534,12.431087254696587
07_10,Raw Data\07_10\07_10_test_103.csv,,Integrated Beam Prototype 3,-0.046833 -0.046833 -0.046016 -0.046016 : 0.009751 0.009751 0.048646 0.048646 : 0.451608 0.451608 0.359203 0.359203,lo,89.0,15.0,0.0,0.0,25.0,0.0,9.5,1.974695902798076,23.26072645083048,13.778003114415547,17.734939779904902,31.342682736813885,11.79653344017306,7.158151934295625,5.956235411529834,21.547566484322584,13.081333588963828,8.099082886559724
07_10,Raw Data\07_10\07_10_test_104.csv,,Integrated Beam Prototype 3,-0.046833 -0.046833 -0.046016 -0.046016 : 0.009751 0.009751 0.048646 0.048646 : 0.451608 0.451608 0.359203 0.359203,lo,89.0,15.0,0.0,0.0,25.0,0.0,9.5,1.974695902798076,23.26072645083048,17.055200819836855,16.803338291482905,20.928853830808347,6.413131427750869,8.35924889938916,5.87301131888784,37.3369612229926,8.283906929127845,10.541266183789649
07_10,Raw Data\07_10\07_10_test_105.csv,,Integrated Beam Prototype 3,-0.046833 -0.046833 -0.046016 -0.046016 : 0.009751 0.009751 0.048646 0.048646 : 0.451608 0.451608 0.359203 0.359203,lo,89.0,15.0,0.0,0.0,25.0,0.0,9.5,1.974695902798076,23.26072645083048,19.923401370048488,21.77234985050508,23.632133709127164,10.470625075223902,7.525518536447088,7.11046431347941,15.36199536768724,6.648267614616834,13.054052272130797
07_10,Raw Data\07_10\07_10_test_106.csv,,Integrated Beam Prototype 3,-0.046833 -0.046833 -0.046016 -0.046016 : 0.009751 0.009751 0.048646 0.048646 : 0.451608 0.451608 0.359203 0.359203,lo,89.0,15.0,0.0,0.0,25.0,0.0,9.5,1.974695902798076,23.26072645083048,18.227901740320828,18.67310847017937,17.61859699934447,10.615354774200156,7.422998815121563,6.76335027210652,15.3978449929266,9.712568386556086,18.65107132249952
07_10,Raw Data\07_10\07_10_test_107.csv,,Integrated Beam Prototype 3,-0.046833 -0.046833 -0.046016 -0.046016 : 0.009751 0.009751 0.048646 0.048646 : 0.451608 0.451608 0.359203 0.359203,lo,89.0,15.0,0.0,0.0,25.0,0.0,9.5,1.974695902798076,23.26072645083048,14.967732725503511,18.257256040898177,20.11320107781701,10.608799414420307,7.852223609944618,12.670317489059345,13.027897383936272,7.653832493604981,14.572359310553304
07_10,Raw Data\07_10\07_10_test_108.csv,,Integrated Beam Prototype 3,-0.046833 -0.046833 -0.046016 -0.046016 : 0.009751 0.009751 0.048646 0.048646 : 0.451608 0.451608 0.359203 0.359203,lo,89.0,15.0,0.0,0.0,25.0,0.0,9.5,1.974695902798076,23.26072645083048,15.092379325193258,15.606795371217878,31.540101988648825,14.85904349114043,8.11146703797603,7.739839117284221,26.615189810380645,6.775235656505939,13.657721883480852
07_10,Raw Data\07_10\07_10_test_109.csv,,Integrated Beam Prototype 3,-0.046833 -0.046833 -0.046016 -0.046016 : 0.009751 0.009751 0.048646 0.048646 : 0.451608 0.451608 0.359203 0.359203,lo,89.0,15.0,0.0,0.0,25.0,0.0,9.5,1.974695902798076,23.26072645083048,14.024381281839688,15.15471470160931,14.75330807588821,9.584530697490804,14.684237348978664,6.979414695321328,16.176661712103908,7.800819900022841,8.993252787844146
07_10,Raw Data\07_10\07_10_test_110.csv,,Integrated Beam Prototype 3,-0.046833 -0.046833 -0.046016 -0.046016 : 0.009751 0.009751 0.048646 0.048646 : 0.451608 0.451608 0.359203 0.359203,lo,89.0,15.0,0.0,0.0,25.0,0.0,9.5,1.974695902798076,23.26072645083048,16.581793342353453,14.852839385998726,25.998595407892854,11.147618100876164,9.66005061052174,4.005134247178277,29.44226984016342,7.614400449664111,10.98746732065602
07_10,Raw Data\07_10\07_10_test_111.csv,,Integrated Beam Prototype 3,-0.046833 -0.046833 -0.046016 -0.046016 : 0.009751 0.009751 0.048646 0.048646 : 0.451608 0.451608 0.359203 0.359203,lo,89.0,15.0,0.0,0.0,25.0,0.0,9.5,1.974695902798076,23.26072645083048,16.870943886790762,17.34033604707885,15.189605204794836,10.263601573113371,8.752340181728004,9.461669774078311,20.57646373227355,11.026571499736107,14.226534694710152
07_10,Raw Data\07_10\07_10_test_112.csv,,Integrated Beam Prototype 3,-0.046833 -0.046833 -0.046016 -0.046016 : 0.009751 0.009751 0.048646 0.048646 : 0.451608 0.451608 0.359203 0.359203,lo,89.0,15.0,0.0,0.0,25.0,0.0,9.5,1.974695902798076,23.26072645083048,16.96231967679068,15.3504621662724,25.55706549791679,10.372195693757384,6.095931530792769,14.968307846745256,18.06162287195643,8.360889210861213,14.2110124806361
07_10,Raw Data\07_10\07_10_test_113.csv,,Integrated Beam Prototype 3,-0.046833 -0.046833 -0.046016 -0.046016 : 0.009751 0.009751 0.048646 0.048646 : 0.451608 0.451608 0.359203 0.359203,lo,89.0,15.0,0.0,0.0,25.0,0.0,9.5,1.974695902798076,23.26072645083048,14.282953855413552,17.844079837285662,16.394243419929918,12.11814241913454,7.952931720660274,13.12260161879662,21.895347729687668,12.623862061322104,10.982083726563742
07_10,Raw Data\07_10\07_10_test_114.csv,,Integrated Beam Prototype 3,-0.046833 -0.046833 -0.046016 -0.046016 : 0.009751 0.009751 0.048646 0.048646 : 0.451608 0.451608 0.359203 0.359203,lo,89.0,15.0,0.0,0.0,25.0,0.0,9.5,1.974695902798076,23.26072645083048,14.97659954311128,15.167261724473756,22.35930173047751,8.31100774268467,10.17174105155177,12.0967694894747,25.858067151193147,12.768121930512317,15.118331196344426
07_10,Raw Data\07_10\07_10_test_115.csv,,Integrated Beam Prototype 3,-0.046833 -0.046833 -0.046016 -0.046016 : 0.009751 0.009751 0.048646 0.048646 : 0.451608 0.451608 0.359203 0.359203,lo,89.0,15.0,0.0,0.0,25.0,0.0,9.5,1.974695902798076,23.26072645083048,18.37010219974877,15.00695896544161,23.759061821127368,10.09059797195216,5.602206912918554,6.486507557319536,21.053861972234603,11.287364049891195,19.462147978928225
07_10,Raw Data\07_10\07_10_test_116.csv,,Integrated Beam Prototype 3,-0.046833 -0.046833 -0.046016 -0.046016 : 0.009751 0.009751 0.048646 0.048646 : 0.451608 0.451608 0.359203 0.359203,med,89.0,15.0,0.0,0.0,25.0,0.0,9.0,0.6331639346126273,45.3045856690778,24.95745558242484,23.55451138347465,22.995481295623264,28.45556248371993,29.48093691702697,28.35163095181719,25.96606286655576,27.55330903077602,24.54752482521354
07_10,Raw Data\07_10\07_10_test_117.csv,,Integrated Beam Prototype 3,-0.046833 -0.046833 -0.046016 -0.046016 : 0.009751 0.009751 0.048646 0.048646 : 0.451608 0.451608 0.359203 0.359203,med,89.0,15.0,0.0,0.0,25.0,0.0,9.0,0.6331639346126273,45.3045856690778,23.090044408771263,18.74699364346511,20.300582197213533,31.93972536685199,27.365996420257456,27.480574961765303,24.500413799074853,30.161426946779084,24.95636779638118
07_10,Raw Data\07_10\07_10_test_118.csv,,Integrated Beam Prototype 3,-0.046833 -0.046833 -0.046016 -0.046016 : 0.009751 0.009751 0.048646 0.048646 : 0.451608 0.451608 0.359203 0.359203,med,89.0,15.0,0.0,0.0,25.0,0.0,9.0,0.6331639346126273,45.3045856690778,21.99119179173845,22.83871905909163,21.06657619652798,27.597092169478174,26.728104963054783,28.487679412432225,26.341458267720053,27.435429962487344,26.262953690431875
07_10,Raw Data\07_10\07_10_test_119.csv,,Integrated Beam Prototype 3,-0.046833 -0.046833 -0.046016 -0.046016 : 0.009751 0.009751 0.048646 0.048646 : 0.451608 0.451608 0.359203 0.359203,med,89.0,15.0,0.0,0.0,25.0,0.0,9.0,0.6331639346126273,45.3045856690778,25.326238719463458,19.756980562050497,21.08112001028312,26.778814235427987,24.605582986938423,23.4016093555866,22.53086223031875,23.29852504201948,18.172771393429656
07_10,Raw Data\07_10\07_10_test_120.csv,,Integrated Beam Prototype 3,-0.046833 -0.046833 -0.046016 -0.046016 : 0.009751 0.009751 0.048646 0.048646 : 0.451608 0.451608 0.359203 0.359203,med,89.0,15.0,0.0,0.0,25.0,0.0,9.0,0.6331639346126273,45.3045856690778,26.14999916732385,22.795240148341648,20.149830602103293,28.82809697736992,27.35595147990271,26.6663755781202,26.208613277421005,21.404346778236818,21.359008932812426
07_10,Raw Data\07_10\07_10_test_121.csv,,Integrated Beam Prototype 3,-0.046833 -0.046833 -0.046016 -0.046016 : 0.009751 0.009751 0.048646 0.048646 : 0.451608 0.451608 0.359203 0.359203,med,89.0,15.0,0.0,0.0,25.0,0.0,9.0,0.6331639346126273,45.3045856690778,18.41817229821874,24.09852426787896,22.45877977172433,24.36594432273489,22.69303712793437,23.97645631404858,16.775377557023777,25.36730845252981,20.771772844048613
07_10,Raw Data\07_10\07_10_test_122.csv,,Integrated Beam Prototype 3,-0.046833 -0.046833 -0.046016 -0.046016 : 0.009751 0.009751 0.048646 0.048646 : 0.451608 0.451608 0.359203 0.359203,med,89.0,15.0,0.0,0.0,25.0,0.0,9.0,0.6331639346126273,45.3045856690778,20.36609884590934,26.29730755671073,29.24064565923245,26.81322540782445,24.684951245587573,25.915458694112743,23.386721142691595,25.08299931573972,22.49392072548428
07_10,Raw Data\07_10\07_10_test_123.csv,,Integrated Beam Prototype 3,-0.046833 -0.046833 -0.046016 -0.046016 : 0.009751 0.009751 0.048646 0.048646 : 0.451608 0.451608 0.359203 0.359203,med,89.0,15.0,0.0,0.0,25.0,0.0,9.0,0.6331639346126273,45.3045856690778,22.046961887348505,22.508697490158376,22.902507552263607,26.40157833638139,23.23334463892309,24.860989365413765,24.93707310207664,25.812284591217608,23.128384936653188
07_10,Raw Data\07_10\07_10_test_124.csv,,Integrated Beam Prototype 3,-0.046833 -0.046833 -0.046016 -0.046016 : 0.009751 0.009751 0.048646 0.048646 : 0.451608 0.451608 0.359203 0.359203,med,89.0,15.0,0.0,0.0,25.0,0.0,9.0,0.6331639346126273,45.3045856690778,23.045789476847297,20.041673986594613,22.645545710990127,24.84661998971933,24.609097106622045,27.956914406417297,24.54455412878169,24.35295692964168,24.77577779127574
07_10,Raw Data\07_10\07_10_test_125.csv,,Integrated Beam Prototype 3,-0.046833 -0.046833 -0.046016 -0.046016 : 0.009751 0.009751 0.048646 0.048646 : 0.451608 0.451608 0.359203 0.359203,med,89.0,15.0,0.0,0.0,25.0,0.0,9.0,0.6331639346126273,45.3045856690778,21.403160539661418,21.23258562445696,22.43183264779383,27.06143513432141,25.029666908983028,25.85152318675049,25.877517840032347,29.21599910104141,20.016233957367064
07_10,Raw Data\07_10\07_10_test_126.csv,,Integrated Beam Prototype 3,-0.046833 -0.046833 -0.046016 -0.046016 : 0.009751 0.009751 0.048646 0.048646 : 0.451608 0.451608 0.359203 0.359203,med,89.0,15.0,0.0,0.0,25.0,0.0,9.0,0.6331639346126273,45.3045856690778,20.97792945544659,21.064212205364854,24.040310105002085,27.68879254550577,28.20316523771656,28.534716753447903,27.57225900222253,23.0171153614821,26.50081410282013
07_10,Raw Data\07_10\07_10_test_127.csv,,Integrated Beam Prototype 3,-0.046833 -0.046833 -0.046016 -0.046016 : 0.009751 0.009751 0.048646 0.048646 : 0.451608 0.451608 0.359203 0.359203,med,89.0,15.0,0.0,0.0,25.0,0.0,9.0,0.6331639346126273,45.3045856690778,24.115870502402807,24.65249412105197,18.91563533528486,29.532373573173604,26.985594032293424,25.823500261282657,24.964060828429805,26.601018758838777,20.38295167876846
07_10,Raw Data\07_10\07_10_test_128.csv,,Integrated Beam Prototype 3,-0.046833 -0.046833 -0.046016 -0.046016 : 0.009751 0.009751 0.048646 0.048646 : 0.451608 0.451608 0.359203 0.359203,med,89.0,15.0,0.0,0.0,25.0,0.0,9.0,0.6331639346126273,45.3045856690778,21.878175373334948,22.827389662803974,21.08621946534214,24.403846157650865,24.088658865750745,26.56363185664984,28.76367604958402,30.141594601417705,21.32396794180776
07_10,Raw Data\07_10\07_10_test_129.csv,,Integrated Beam Prototype 3,-0.046833 -0.046833 -0.046016 -0.046016 : 0.009751 0.009751 0.048646 0.048646 : 0.451608 0.451608 0.359203 0.359203,med,89.0,15.0,0.0,0.0,25.0,0.0,9.0,0.6331639346126273,45.3045856690778,23.16349464765986,22.659013057956656,21.64139110683969,28.180868636247464,27.572114623421605,26.623936756742683,23.64241469642348,24.38078960747488,23.041074394883527
07_10,Raw Data\07_10\07_10_test_130.csv,,Integrated Beam Prototype 3,-0.046833 -0.046833 -0.046016 -0.046016 : 0.009751 0.009751 0.048646 0.048646 : 0.451608 0.451608 0.359203 0.359203,med,89.0,15.0,0.0,0.0,25.0,0.0,9.0,0.6331639346126273,45.3045856690778,22.666917518649804,23.111486507508545,24.15014062148536,25.17367128427817,22.377739581460872,26.00261863586589,26.19628200440246,24.78426627730165,23.70066120685359
07_10,Raw Data\07_10\07_10_test_131.csv,,Integrated Beam Prototype 3,-0.046833 -0.046833 -0.046016 -0.046016 : 0.009751 0.009751 0.048646 0.048646 : 0.451608 0.451608 0.359203 0.359203,hi,89.0,15.0,0.0,0.0,25.0,0.0,9.0,0.6444167904632848,46.45053319245909,37.40141057072886,35.735109427906536,35.973824736423296,43.81243861551209,40.2549068406499,41.19425457949698,41.748456587126114,33.80246232146358,30.840858278004912
07_10,Raw Data\07_10\07_10_test_132.csv,,Integrated Beam Prototype 3,-0.046833 -0.046833 -0.046016 -0.046016 : 0.009751 0.009751 0.048646 0.048646 : 0.451608 0.451608 0.359203 0.359203,hi,89.0,15.0,0.0,0.0,25.0,0.0,9.0,0.6444167904632848,46.45053319245909,38.09174109900855,36.31530924535234,37.52373603918477,43.4101979930422,40.656740312112845,48.44714675278109,41.03814038167323,36.395641224707205,38.93161993408066
07_10,Raw Data\07_10\07_10_test_133.csv,,Integrated Beam Prototype 3,-0.046833 -0.046833 -0.046016 -0.046016 : 0.009751 0.009751 0.048646 0.048646 : 0.451608 0.451608 0.359203 0.359203,hi,89.0,15.0,0.0,0.0,25.0,0.0,9.0,0.6444167904632848,46.45053319245909,39.74150470404143,38.927754092649344,39.06990718084084,43.638948980096565,43.79288348306966,43.96385526421419,40.59941464928417,33.238964687951835,35.853735599376805
07_10,Raw Data\07_10\07_10_test_134.csv,,Integrated Beam Prototype 3,-0.046833 -0.046833 -0.046016 -0.046016 : 0.009751 0.009751 0.048646 0.048646 : 0.451608 0.451608 0.359203 0.359203,hi,89.0,15.0,0.0,0.0,25.0,0.0,9.0,0.6444167904632848,46.45053319245909,42.50459824059149,35.02034983742109,44.76380532987764,36.28365418469032,41.29813586421561,46.57782473623931,41.50107283815096,31.99958709849532,38.48536056804427
07_10,Raw Data\07_10\07_10_test_135.csv,,Integrated Beam Prototype 3,-0.046833 -0.046833 -0.046016 -0.046016 : 0.009751 0.009751 0.048646 0.048646 : 0.451608 0.451608 0.359203 0.359203,hi,89.0,15.0,0.0,0.0,25.0,0.0,9.0,0.6444167904632848,46.45053319245909,41.613842050529335,35.48505316677207,37.09814982284465,46.87893067291469,44.542312553049605,42.99612434518319,47.64613133641474,32.380492081354774,33.87488397893901
07_10,Raw Data\07_10\07_10_test_136.csv,,Integrated Beam Prototype 3,-0.046833 -0.046833 -0.046016 -0.046016 : 0.009751 0.009751 0.048646 0.048646 : 0.451608 0.451608 0.359203 0.359203,hi,89.0,15.0,0.0,0.0,25.0,0.0,9.0,0.6444167904632848,46.45053319245909,41.04101384628626,38.9359415365472,39.63939498388696,41.4516931541467,41.73307576579791,43.61820498076777,39.41629673400575,35.53692828826122,39.41736441683636
07_10,Raw Data\07_10\07_10_test_137.csv,,Integrated Beam Prototype 3,-0.046833 -0.046833 -0.046016 -0.046016 : 0.009751 0.009751 0.048646 0.048646 : 0.451608 0.451608 0.359203 0.359203,hi,89.0,15.0,0.0,0.0,25.0,0.0,9.0,0.6444167904632848,46.45053319245909,40.0125288443211,36.0744679824343,37.67555047130661,48.35350556771608,45.61581804272597,45.19967254939421,43.468216490340495,35.53154328106011,35.88455622695162
07_10,Raw Data\07_10\07_10_test_138.csv,,Integrated Beam Prototype 3,-0.046833 -0.046833 -0.046016 -0.046016 : 0.009751 0.009751 0.048646 0.048646 : 0.451608 0.451608 0.359203 0.359203,hi,89.0,15.0,0.0,0.0,25.0,0.0,9.0,0.6444167904632848,46.45053319245909,41.32634349312817,34.478479614691445,37.41264093558361,39.53966811275559,41.76023196127269,44.78803460750289,40.1467285869208,31.56045228609156,40.64434180848295
07_10,Raw Data\07_10\07_10_test_139.csv,,Integrated Beam Prototype 3,-0.046833 -0.046833 -0.046016 -0.046016 : 0.009751 0.009751 0.048646 0.048646 : 0.451608 0.451608 0.359203 0.359203,hi,89.0,15.0,0.0,0.0,25.0,0.0,9.0,0.6444167904632848,46.45053319245909,40.547464085450095,31.85881278444689,37.573578173534095,43.06961090446712,43.58342670660408,42.19492466852032,44.4470715756153,35.07304840973444,33.920310815799894
07_10,Raw Data\07_10\07_10_test_140.csv,,Integrated Beam Prototype 3,-0.046833 -0.046833 -0.046016 -0.046016 : 0.009751 0.009751 0.048646 0.048646 : 0.451608 0.451608 0.359203 0.359203,hi,89.0,15.0,0.0,0.0,25.0,0.0,9.0,0.6444167904632848,46.45053319245909,41.697929319293394,38.8687115144317,36.27327698284443,39.97783455242919,41.83636834463814,44.98102299928584,42.04321166732486,36.995564972038615,34.365899550245125
07_10,Raw Data\07_10\07_10_test_141.csv,,Integrated Beam Prototype 3,-0.046833 -0.046833 -0.046016 -0.046016 : 0.009751 0.009751 0.048646 0.048646 : 0.451608 0.451608 0.359203 0.359203,hi,89.0,15.0,0.0,0.0,25.0,0.0,9.0,0.6444167904632848,46.45053319245909,34.1185672022143,38.00111369514556,39.15294352654791,45.829288635029386,45.63391760519085,39.17755269781699,44.56784043155952,36.47843757481901,40.58816748082716
07_10,Raw Data\07_10\07_10_test_142.csv,,Integrated Beam Prototype 3,-0.046833 -0.046833 -0.046016 -0.046016 : 0.009751 0.009751 0.048646 0.048646 : 0.451608 0.451608 0.359203 0.359203,hi,89.0,15.0,0.0,0.0,25.0,0.0,9.0,0.6444167904632848,46.45053319245909,37.67538465542238,39.53862546166221,36.82654119178548,45.88663397779545,46.3760619006901,45.179870756232496,38.12120940473538,32.99475311192766,38.60421145855362
07_10,Raw Data\07_10\07_10_test_143.csv,,Integrated Beam Prototype 3,-0.046833 -0.046833 -0.046016 -0.046016 : 0.009751 0.009751 0.048646 0.048646 : 0.451608 0.451608 0.359203 0.359203,hi,89.0,15.0,0.0,0.0,25.0,0.0,9.0,0.6444167904632848,46.45053319245909,39.81424497474213,35.800979379184454,34.127450626493264,40.1441261596275,44.44277932123035,42.7195248777304,39.97951469963021,34.58491506493366,37.28133375214394
07_10,Raw Data\07_10\07_10_test_144.csv,,Integrated Beam Prototype 3,-0.046833 -0.046833 -0.046016 -0.046016 : 0.009751 0.009751 0.048646 0.048646 : 0.451608 0.451608 0.359203 0.359203,hi,89.0,15.0,0.0,0.0,25.0,0.0,9.0,0.6444167904632848,46.45053319245909,37.0648321749086,34.78619436511741,37.25780514041986,37.764707908489214,40.021306503669045,47.52948595732769,42.790406448747945,36.97718636163777,38.36056123496042
07_10,Raw Data\07_10\07_10_test_145.csv,,Integrated Beam Prototype 3,-0.046833 -0.046833 -0.046016 -0.046016 : 0.009751 0.009751 0.048646 0.048646 : 0.451608 0.451608 0.359203 0.359203,hi,89.0,15.0,0.0,0.0,25.0,0.0,9.0,0.6444167904632848,46.45053319245909,39.63388274258895,38.79944199191271,35.50586886481912,44.40922815198782,43.48406049160943,43.597470535294576,42.30892549070217,34.66644225274746,37.275833433670485
07_11,Raw Data\07_11\07_11_test_1.csv,,Integrated Beam Prototype 3,-0.046833 -0.046833 -0.046016 -0.046016 : 0.009751 0.009751 0.048646 0.048646 : 0.451608 0.451608 0.359203 0.359203,hi,89.0,15.0,0.0,0.0,25.0,0.0,9.0,0.6841116440234505,43.48292117901446,39.7302404712074,38.496173284177,41.24568268838487,45.847971459366775,44.61885245134822,46.357818152603656,39.06452715866686,34.07422565378635,38.1383025449704
07_11,Raw Data\07_11\07_11_test_2.csv,,Integrated Beam Prototype 3,-0.046833 -0.046833 -0.046016 -0.046016 : 0.009751 0.009751 0.048646 0.048646 : 0.451608 0.451608 0.359203 0.359203,hi,89.0,15.0,0.0,0.0,25.0,0.0,9.0,0.6841116440234505,43.48292117901446,41.3797924965869,35.76562719347756,29.84224315654764,43.494581282394485,44.27389255254331,38.7886438768624,40.85610122606127,34.99214471399296,32.09975615538179
07_11,Raw Data\07_11\07_11_test_3.csv,,Integrated Beam Prototype 3,-0.046833 -0.046833 -0.046016 -0.046016 : 0.009751 0.009751 0.048646 0.048646 : 0.451608 0.451608 0.359203 0.359203,hi,89.0,15.0,0.0,0.0,25.0,0.0,9.0,0.6841116440234505,43.48292117901446,41.46718153425139,31.16814336931672,35.444279171443284,41.31432458417399,41.55748423283559,43.99541929871592,40.2579138227646,35.36962071824951,40.309581451365545
07_11,Raw Data\07_11\07_11_test_4.csv,,Integrated Beam Prototype 3,-0.046833 -0.046833 -0.046016 -0.046016 : 0.009751 0.009751 0.048646 0.048646 : 0.451608 0.451608 0.359203 0.359203,hi,89.0,15.0,0.0,0.0,25.0,0.0,9.0,0.6841116440234505,43.48292117901446,37.483155446476815,32.80855618659609,35.45193274940965,42.16358833665364,46.64686026715555,38.5660124682812,43.95633119609024,35.20617145778556,35.10166791900699
07_11,Raw Data\07_11\07_11_test_5.csv,,Integrated Beam Prototype 3,-0.046833 -0.046833 -0.046016 -0.046016 : 0.009751 0.009751 0.048646 0.048646 : 0.451608 0.451608 0.359203 0.359203,hi,89.0,15.0,0.0,0.0,25.0,0.0,9.0,0.6841116440234505,43.48292117901446,40.17561396221752,34.183404786449174,36.20691714077528,39.03004912171152,39.41243341441023,47.55539592131523,44.23633624347109,34.51230988670979,38.35927200080535
07_11,Raw Data\07_11\07_11_test_6.csv,,Integrated Beam Prototype 3,-0.046833 -0.046833 -0.046016 -0.046016 : 0.009751 0.009751 0.048646 0.048646 : 0.451608 0.451608 0.359203 0.359203,hi,89.0,15.0,0.0,0.0,25.0,0.0,9.0,0.6841116440234505,43.48292117901446,38.23175219353308,32.66425997364101,33.155899357988254,47.32440153896335,50.003574584264285,40.34019857221492,41.029623017922304,38.67788143397848,31.38181383979705
07_11,Raw Data\07_11\07_11_test_7.csv,,Integrated Beam Prototype 3,-0.046833 -0.046833 -0.046016 -0.046016 : 0.009751 0.009751 0.048646 0.048646 : 0.451608 0.451608 0.359203 0.359203,hi,89.0,15.0,0.0,0.0,25.0,0.0,9.0,0.6841116440234505,43.48292117901446,40.32908750598848,35.159781696117285,38.94891111188668,43.70598658556478,40.42937626972024,48.26658851446353,41.33678578550004,28.39555752660456,41.087507574280885
07_11,Raw Data\07_11\07_11_test_8.csv,,Integrated Beam Prototype 3,-0.046833 -0.046833 -0.046016 -0.046016 : 0.009751 0.009751 0.048646 0.048646 : 0.451608 0.451608 0.359203 0.359203,hi,89.0,15.0,0.0,0.0,25.0,0.0,9.0,0.6841116440234505,43.48292117901446,43.80490669049586,33.27297597508601,36.10778324575787,42.95315811228636,44.330065705963634,36.31687918505544,40.28892302688819,33.51159905218508,38.397805766361344
07_11,Raw Data\07_11\07_11_test_9.csv,,Integrated Beam Prototype 3,-0.046833 -0.046833 -0.046016 -0.046016 : 0.009751 0.009751 0.048646 0.048646 : 0.451608 0.451608 0.359203 0.359203,hi,89.0,15.0,0.0,0.0,25.0,0.0,9.0,0.6841116440234505,43.48292117901446,42.186399668649,34.37246118484574,35.342798314261785,42.38309213706637,40.82055019714657,44.76908740923937,39.35041214106312,39.19173281784251,37.53334483835568
07_11,Raw Data\07_11\07_11_test_10.csv,,Integrated Beam Prototype 3,-0.046833 -0.046833 -0.046016 -0.046016 : 0.009751 0.009751 0.048646 0.048646 : 0.451608 0.451608 0.359203 0.359203,hi,89.0,15.0,0.0,0.0,25.0,0.0,9.0,0.6841116440234505,43.48292117901446,40.27270030595761,33.34668320841815,33.44712918174752,43.27196467303264,40.03472630487335,40.050736610570056,41.307737620890286,36.1426075836645,39.39554112144556
07_11,Raw Data\07_11\07_11_test_11.csv,,Integrated Beam Prototype 3,-0.046833 -0.046833 -0.046016 -0.046016 : 0.009751 0.009751 0.048646 0.048646 : 0.451608 0.451608 0.359203 0.359203,hi,89.0,15.0,0.0,0.0,25.0,0.0,9.0,0.6841116440234505,43.48292117901446,38.08362854835834,33.96774338053033,38.33806217031293,39.704743550225295,41.88485416597912,40.68677697721285,43.53653180259957,31.904986779297143,42.397902163999575
07_11,Raw Data\07_11\07_11_test_12.csv,,Integrated Beam Prototype 3,-0.046833 -0.046833 -0.046016 -0.046016 : 0.009751 0.009751 0.048646 0.048646 : 0.451608 0.451608 0.359203 0.359203,hi,89.0,15.0,0.0,0.0,25.0,0.0,9.0,0.6841116440234505,43.48292117901446,40.24518587919437,34.922958120904894,34.8122985121076,47.031115284836126,40.798421355273575,40.80841821903788,38.457815284463415,33.87341653476527,31.332628031388825
07_11,Raw Data\07_11\07_11_test_13.csv,,Integrated Beam Prototype 3,-0.046833 -0.046833 -0.046016 -0.046016 : 0.009751 0.009751 0.048646 0.048646 : 0.451608 0.451608 0.359203 0.359203,hi,89.0,15.0,0.0,0.0,25.0,0.0,9.0,0.6841116440234505,43.48292117901446,43.07519460497348,35.09880169059876,38.73556451843376,41.40275141003608,45.1088840371759,46.42834865003255,38.89794606168132,34.778948425121875,35.77900774699779
07_11,Raw Data\07_11\07_11_test_14.csv,,Integrated Beam Prototype 3,-0.046833 -0.046833 -0.046016 -0.046016 : 0.009751 0.009751 0.048646 0.048646 : 0.451608 0.451608 0.359203 0.359203,hi,89.0,15.0,0.0,0.0,25.0,0.0,9.0,0.6841116440234505,43.48292117901446,37.025089008671,33.36425900457422,34.877987305521835,38.5913351274241,43.40706088482005,40.07808200926678,40.3811357618842,34.036957587210125,33.260509306432326
07_11,Raw Data\07_11\07_11_test_15.csv,,Integrated Beam Prototype 3,-0.046833 -0.046833 -0.046016 -0.046016 : 0.009751 0.009751 0.048646 0.048646 : 0.451608 0.451608 0.359203 0.359203,hi,89.0,15.0,0.0,0.0,25.0,0.0,9.0,0.6841116440234505,43.48292117901446,39.59236087716929,31.180540432011764,36.50279069568556,40.22055003801141,39.27287670105705,45.72074888011939,37.07662149633059,31.3649349466309,41.040979240036535
07_11,Raw Data\07_11\07_11_test_16.csv,,Integrated Beam Prototype 3,-0.046833 -0.046833 -0.046016 -0.046016 : 0.009751 0.009751 0.048646 0.048646 : 0.451608 0.451608 0.359203 0.359203,med,89.0,15.0,0.0,0.0,25.0,0.0,9.0,0.6849329328814124,49.90787055723895,23.38301350683788,25.392045381807947,25.28642895494506,26.03517567486968,26.70232538469793,25.980229742560244,24.90055710720793,25.92710164161563,24.551135454622028
07_11,Raw Data\07_11\07_11_test_17.csv,,Integrated Beam Prototype 3,-0.046833 -0.046833 -0.046016 -0.046016 : 0.009751 0.009751 0.048646 0.048646 : 0.451608 0.451608 0.359203 0.359203,med,89.0,15.0,0.0,0.0,25.0,0.0,9.0,0.6849329328814124,49.90787055723895,26.050566907873574,20.984766301874604,24.984590975017163,29.118801353604297,31.28981519518741,25.337149438644666,28.153840503699207,30.21746409878962,28.2802687851574
07_11,Raw Data\07_11\07_11_test_18.csv,,Integrated Beam Prototype 3,-0.046833 -0.046833 -0.046016 -0.046016 : 0.009751 0.009751 0.048646 0.048646 : 0.451608 0.451608 0.359203 0.359203,med,89.0,15.0,0.0,0.0,25.0,0.0,9.0,0.6849329328814124,49.90787055723895,25.68753642674863,23.57226227313208,25.090775704403217,26.34959988198067,26.725156095743905,28.81952510228807,23.35422152531457,24.72406539640905,25.385125430879192
07_11,Raw Data\07_11\07_11_test_19.csv,,Integrated Beam Prototype 3,-0.046833 -0.046833 -0.046016 -0.046016 : 0.009751 0.009751 0.048646 0.048646 : 0.451608 0.451608 0.359203 0.359203,med,89.0,15.0,0.0,0.0,25.0,0.0,9.0,0.6849329328814124,49.90787055723895,23.150574396230585,24.82870209221847,21.566316537730227,30.437697841709035,25.67932507515816,27.244101953779733,27.57744765222601,26.87135456560349,20.241283731003264
07_11,Raw Data\07_11\07_11_test_20.csv,,Integrated Beam Prototype 3,-0.046833 -0.046833 -0.046016 -0.046016 : 0.009751 0.009751 0.048646 0.048646 : 0.451608 0.451608 0.359203 0.359203,med,89.0,15.0,0.0,0.0,25.0,0.0,9.0,0.6849329328814124,49.90787055723895,23.61160359561923,23.708205274285422,20.60191162776966,26.62053485035748,25.17954407528431,30.62615081980141,26.143521902781966,26.95029774109602,22.01052094904958
07_11,Raw Data\07_11\07_11_test_21.csv,,Integrated Beam Prototype 3,-0.046833 -0.046833 -0.046016 -0.046016 : 0.009751 0.009751 0.048646 0.048646 : 0.451608 0.451608 0.359203 0.359203,med,89.0,15.0,0.0,0.0,25.0,0.0,9.0,0.6849329328814124,49.90787055723895,23.807229200473564,23.82396747384662,21.08855384851444,26.300036697523154,27.14231951312349,25.30364229205405,25.0915687037621,29.4428138315164,26.350711661237654
07_11,Raw Data\07_11\07_11_test_22.csv,,Integrated Beam Prototype 3,-0.046833 -0.046833 -0.046016 -0.046016 : 0.009751 0.009751 0.048646 0.048646 : 0.451608 0.451608 0.359203 0.359203,med,89.0,15.0,0.0,0.0,25.0,0.0,9.0,0.6849329328814124,49.90787055723895,23.4723158713586,26.84644795743364,27.4043490360114,30.049160089805387,27.10843170217725,28.94211342973572,26.89691361627712,25.602786771710715,25.976658482508302
