Date,File,user_note,rodney configuration,sensor calibration (k d c),stalk array (lo med hi),sensor height (cm),sensor yaw (degrees),sensor pitch (degrees),sensor roll (degrees),rate of travel (ft/min),angle of travel (degrees),sensor offset (cm to gauge 2),positionDDT_tol,forceDDT_tol,Stalk1,Stalk2,Stalk3,Stalk4,Stalk5,Stalk6,Stalk7,Stalk8,Stalk9
07_03,Raw Data\07_03\07_03_test_11.csv,,Integrated Beam Prototype 1,-0.047269 -5e-06 -0.046184 5.6e-05 : 0.009066 -1.854254 0.052102 -0.06902 : 0.280633 0.004403 0.101502 0.014988,lo,88.0,20.0,0.0,0.0,25.0,0.0,12.0,1.0,25.0,13.18589028033909,,9.975300993518244,6.236999070791853,7.594803178277803,9.0698100076111,16.306031775225268,7.816724915866253,13.480864127813062
07_03,Raw Data\07_03\07_03_test_12.csv,,Integrated Beam Prototype 1,-0.047269 -5e-06 -0.046184 5.6e-05 : 0.009066 -1.854254 0.052102 -0.06902 : 0.280633 0.004403 0.101502 0.014988,lo,88.0,20.0,0.0,0.0,25.0,0.0,12.0,1.0,25.0,12.77696338242745,,11.91347856058525,5.037492971723009,7.252218298233101,13.193797316387478,12.694653592216408,7.740523262372861,10.717027046434998
07_03,Raw Data\07_03\07_03_test_13.csv,,Integrated Beam Prototype 1,-0.047269 -5e-06 -0.046184 5.6e-05 : 0.009066 -1.854254 0.052102 -0.06902 : 0.280633 0.004403 0.101502 0.014988,lo,88.0,20.0,0.0,0.0,25.0,0.0,12.0,1.0,25.0,7.894783991567363,,11.58419775398256,7.813374151388844,5.313900945386099,6.763963642183508,14.370268946620662,7.901649425041341,13.712874072452792
07_03,Raw Data\07_03\07_03_test_14.csv,,Integrated Beam Prototype 1,-0.047269 -5e-06 -0.046184 5.6e-05 : 0.009066 -1.854254 0.052102 -0.06902 : 0.280633 0.004403 0.101502 0.014988,lo,88.0,20.0,0.0,0.0,25.0,0.0,12.0,1.0,25.0,8.71023002163156,,14.57012808781083,3.004790918361826,5.370920878756669,5.888508709323525,10.524625268435036,6.0294124793580846,12.595647174430807
07_03,Raw Data\07_03\07_03_test_15.csv,,Integrated Beam Prototype 1,-0.047269 -5e-06 -0.046184 5.6e-05 : 0.009066 -1.854254 0.052102 -0.06902 : 0.280633 0.004403 0.101502 0.014988,lo,88.0,20.0,0.0,0.0,25.0,0.0,12.0,1.0,25.0,8.257444038249256,,20.75684148225987,4.995964938249126,8.664860649705462,7.406950921345095,8.974752430536702,7.197926776504716,10.965166984217367
07_03,Raw Data\07_03\07_03_test_16.csv,,Integrated Beam Prototype 1,-0.047269 -5e-06 -0.046184 5.6e-05 : 0.009066 -1.854254 0.052102 -0.06902 : 0.280633 0.004403 0.101502 0.014988,lo,88.0,20.0,0.0,0.0,25.0,0.0,12.0,1.0,25.0,10.648541406320197,,10.427430142161022,6.582027281355226,4.798280357626021,5.998720398246858,10.10653933378027,6.667408604134015,11.362783104474424
07_03,Raw Data\07_03\07_03_test_17.csv,,Integrated Beam Prototype 1,-0.047269 -5e-06 -0.046184 5.6e-05 : 0.009066 -1.854254 0.052102 -0.06902 : 0.280633 0.004403 0.101502 0.014988,lo,88.0,20.0,0.0,0.0,25.0,0.0,12.0,1.0,25.0,8.987887482433758,,11.437577368885352,7.99261259732449,8.806830362394038,7.00733565494065,12.698260219732868,5.747610164856861,6.443064907728942
07_03,Raw Data\07_03\07_03_test_18.csv,,Integrated Beam Prototype 1,-0.047269 -5e-06 -0.046184 5.6e-05 : 0.009066 -1.854254 0.052102 -0.06902 : 0.280633 0.004403 0.101502 0.014988,lo,88.0,20.0,0.0,0.0,25.0,0.0,12.0,1.0,25.0,8.882475330659519,,12.100736550741177,5.602952888244427,6.126721741256821,6.157620555758586,16.08276009287093,6.788112122096027,9.618581136547029
07_03,Raw Data\07_03\07_03_test_19.csv,,Integrated Beam Prototype 1,-0.047269 -5e-06 -0.046184 5.6e-05 : 0.009066 -1.854254 0.052102 -0.06902 : 0.280633 0.004403 0.101502 0.014988,lo,88.0,20.0,0.0,0.0,25.0,0.0,12.0,1.0,25.0,14.11726007232891,,14.0078068630696,8.044840866454221,7.183331680071156,18.839076422751884,14.004591725763548,5.771952699750346,7.599710737902639
07_03,Raw Data\07_03\07_03_test_20.csv,,Integrated Beam Prototype 1,-0.047269 -5e-06 -0.046184 5.6e-05 : 0.009066 -1.854254 0.052102 -0.06902 : 0.280633 0.004403 0.101502 0.014988,lo,88.0,20.0,0.0,0.0,25.0,0.0,12.0,1.0,25.0,9.894318090209882,,13.60231360089523,7.37246725095418,4.964401926610387,9.063602853149066,20.174615148720807,6.205371091507196,9.814291168580718
07_03,Raw Data\07_03\07_03_test_21.csv,,Integrated Beam Prototype 1,-0.047269 -5e-06 -0.046184 5.6e-05 : 0.009066 -1.854254 0.052102 -0.06902 : 0.280633 0.004403 0.101502 0.014988,med,88.0,20.0,0.0,0.0,25.0,0.0,12.0,0.45,30.0,15.45635388384068,15.051167515000282,14.060874170747468,16.74440588035148,18.325017427323232,18.37702648839198,17.807970695719405,21.56429794032555,15.409738659235703
07_03,Raw Data\07_03\07_03_test_22.csv,,Integrated Beam Prototype 1,-0.047269 -5e-06 -0.046184 5.6e-05 : 0.009066 -1.854254 0.052102 -0.06902 : 0.280633 0.004403 0.101502 0.014988,med,88.0,20.0,0.0,0.0,25.0,0.0,12.0,0.45,30.0,14.53422886974798,17.068771528980005,15.7434977501691,17.97608454116807,16.9790517767929,20.878365916491,16.392368361190663,17.496948184186316,17.69661455609905
07_03,Raw Data\07_03\07_03_test_23.csv,,Integrated Beam Prototype 1,-0.047269 -5e-06 -0.046184 5.6e-05 : 0.009066 -1.854254 0.052102 -0.06902 : 0.280633 0.004403 0.101502 0.014988,med,88.0,20.0,0.0,0.0,25.0,0.0,12.0,0.45,30.0,15.673700830910814,15.053500192286318,15.16482843885808,18.967175831742075,15.199930796324496,17.590988381870314,18.88713962073781,18.07202625084032,15.365189554199334
07_03,Raw Data\07_03\07_03_test_24.csv,,Integrated Beam Prototype 1,-0.047269 -5e-06 -0.046184 5.6e-05 : 0.009066 -1.854254 0.052102 -0.06902 : 0.280633 0.004403 0.101502 0.014988,med,88.0,20.0,0.0,0.0,25.0,0.0,12.0,0.45,30.0,16.71720959015178,16.562010040345253,14.24747739282846,22.2587576272506,20.018607873070184,17.26928100561525,18.103842239378416,19.576088246055548,16.008588682967833
07_03,Raw Data\07_03\07_03_test_25.csv,,Integrated Beam Prototype 1,-0.047269 -5e-06 -0.046184 5.6e-05 : 0.009066 -1.854254 0.052102 -0.06902 : 0.280633 0.004403 0.101502 0.014988,med,88.0,20.0,0.0,0.0,25.0,0.0,12.0,0.45,30.0,15.329520496676182,15.01647234140356,17.01984023268117,18.658393148060053,17.43834881366515,15.029899636273946,17.855060171901634,17.334507698244458,16.01077175433648
07_03,Raw Data\07_03\07_03_test_26.csv,,Integrated Beam Prototype 1,-0.047269 -5e-06 -0.046184 5.6e-05 : 0.009066 -1.854254 0.052102 -0.06902 : 0.280633 0.004403 0.101502 0.014988,med,88.0,20.0,0.0,0.0,25.0,0.0,12.0,0.45,30.0,15.580589623900227,15.867606490858687,14.356161160388844,17.07866376310293,17.442617998852775,16.07886057411902,15.95468806660574,15.95578357877548,12.73395863155972
07_03,Raw Data\07_03\07_03_test_27.csv,,Integrated Beam Prototype 1,-0.047269 -5e-06 -0.046184 5.6e-05 : 0.009066 -1.854254 0.052102 -0.06902 : 0.280633 0.004403 0.101502 0.014988,med,88.0,20.0,0.0,0.0,25.0,0.0,12.0,0.45,30.0,16.799511150249177,18.329468528442334,15.129904837890171,19.620581083103705,17.46827195926404,15.588295701418412,17.386121142549232,19.95942558815504,12.776333035708303
07_03,Raw Data\07_03\07_03_test_28.csv,,Integrated Beam Prototype 1,-0.047269 -5e-06 -0.046184 5.6e-05 : 0.009066 -1.854254 0.052102 -0.06902 : 0.280633 0.004403 0.101502 0.014988,med,88.0,20.0,0.0,0.0,25.0,0.0,12.0,0.45,30.0,16.24757905660247,17.75992484871102,14.54209005001596,19.66386003030809,17.631081362967947,19.5771878291932,17.691604361328075,22.497935168993845,15.442443427233814
07_03,Raw Data\07_03\07_03_test_29.csv,,Integrated Beam Prototype 1,-0.047269 -5e-06 -0.046184 5.6e-05 : 0.009066 -1.854254 0.052102 -0.06902 : 0.280633 0.004403 0.101502 0.014988,med,88.0,20.0,0.0,0.0,25.0,0.0,12.0,0.45,30.0,15.705158072539788,15.809850135942748,17.705515460330997,18.839275255713943,17.036984925285772,16.97754919548875,16.375384709502292,20.45335194157616,16.444903274470008
07_03,Raw Data\07_03\07_03_test_30.csv,,Integrated Beam Prototype 1,-0.047269 -5e-06 -0.046184 5.6e-05 : 0.009066 -1.854254 0.052102 -0.06902 : 0.280633 0.004403 0.101502 0.014988,med,88.0,20.0,0.0,0.0,25.0,0.0,12.0,0.45,30.0,14.357392388554018,16.742202117457857,16.209485776561262,18.97994263372588,16.99347149039332,15.168309762249969,15.389988984110008,16.688300464470046,16.16051687957252
07_03,Raw Data\07_03\07_03_test_31.csv,,Integrated Beam Prototype 1,-0.047269 -5e-06 -0.046184 5.6e-05 : 0.009066 -1.854254 0.052102 -0.06902 : 0.280633 0.004403 0.101502 0.014988,hi,88.0,20.0,0.0,0.0,25.0,0.0,12.0,0.45,40.0,25.505447504340456,21.978238594463345,21.037706698896,28.35660359221086,26.24402337713789,27.288303591062856,28.39280024374748,28.807248667153672,25.80981086128573
07_03,Raw Data\07_03\07_03_test_32.csv,,Integrated Beam Prototype 1,-0.047269 -5e-06 -0.046184 5.6e-05 : 0.009066 -1.854254 0.052102 -0.06902 : 0.280633 0.004403 0.101502 0.014988,hi,88.0,20.0,0.0,0.0,25.0,0.0,12.0,0.45,40.0,28.697591779041744,23.4243690770893,21.88943031428989,26.570184613414984,26.4587313570723,29.95412716014823,27.38891628223917,28.09023833533709,26.81304457914094
07_03,Raw Data\07_03\07_03_test_33.csv,,Integrated Beam Prototype 1,-0.047269 -5e-06 -0.046184 5.6e-05 : 0.009066 -1.854254 0.052102 -0.06902 : 0.280633 0.004403 0.101502 0.014988,hi,88.0,20.0,0.0,0.0,25.0,0.0,12.0,0.45,40.0,29.010699779134978,22.91196786990734,24.21665988176997,27.884665391161324,28.44203564320389,25.602052483313543,28.383578464789995,26.258520571305866,25.446022463850085
07_03,Raw Data\07_03\07_03_test_34.csv,,Integrated Beam Prototype 1,-0.047269 -5e-06 -0.046184 5.6e-05 : 0.009066 -1.854254 0.052102 -0.06902 : 0.280633 0.004403 0.101502 0.014988,hi,88.0,20.0,0.0,0.0,25.0,0.0,12.0,0.45,40.0,27.148829295803345,25.4178834905944,22.867304401269305,29.80296693134817,28.124821120910315,28.11281550217055,26.76436801083973,27.575500581796263,24.56161218267941
07_03,Raw Data\07_03\07_03_test_35.csv,,Integrated Beam Prototype 1,-0.047269 -5e-06 -0.046184 5.6e-05 : 0.009066 -1.854254 0.052102 -0.06902 : 0.280633 0.004403 0.101502 0.014988,hi,88.0,20.0,0.0,0.0,25.0,0.0,12.0,0.45,40.0,27.51992967939256,25.29641171308012,22.57501196298304,31.14026120162832,26.078786732609423,26.633746332808823,28.55485579382224,27.27297203705876,26.775571987785163
07_03,Raw Data\07_03\07_03_test_36.csv,,Integrated Beam Prototype 1,-0.047269 -5e-06 -0.046184 5.6e-05 : 0.009066 -1.854254 0.052102 -0.06902 : 0.280633 0.004403 0.101502 0.014988,hi,88.0,20.0,0.0,0.0,25.0,0.0,12.0,0.45,40.0,29.92878902740153,23.41197398817796,22.22916990474736,29.682341042019456,25.91123069749644,31.643196427897653,26.951697847362663,27.94416119426189,27.526502963478467
07_03,Raw Data\07_03\07_03_test_37.csv,,Integrated Beam Prototype 1,-0.047269 -5e-06 -0.046184 5.6e-05 : 0.009066 -1.854254 0.052102 -0.06902 : 0.280633 0.004403 0.101502 0.014988,hi,88.0,20.0,0.0,0.0,25.0,0.0,12.0,0.45,40.0,24.270952153048903,19.787192309545087,21.23420560516356,25.411146597879405,25.316138964585893,25.21514634903033,25.35562516576398,28.929266469089583,29.09744603680391
07_03,Raw Data\07_03\07_03_test_38.csv,,Integrated Beam Prototype 1,-0.047269 -5e-06 -0.046184 5.6e-05 : 0.009066 -1.854254 0.052102 -0.06902 : 0.280633 0.004403 0.101502 0.014988,hi,88.0,20.0,0.0,0.0,25.0,0.0,12.0,0.45,40.0,28.9452611308246,24.59480981659436,22.81651192756348,26.25584617414697,26.0604574536517,28.257573014062185,28.69504150220368,30.98536904719907,23.21084253624878
07_03,Raw Data\07_03\07_03_test_39.csv,,Integrated Beam Prototype 1,-0.047269 -5e-06 -0.046184 5.6e-05 : 0.009066 -1.854254 0.052102 -0.06902 : 0.280633 0.004403 0.101502 0.014988,hi,88.0,20.0,0.0,0.0,25.0,0.0,12.0,0.45,40.0,29.43809026995382,23.97305607478972,22.2996628456502,26.968140563579087,27.33520373086818,26.513429752850914,25.825570804485267,27.718871244705305,27.773047114001308
07_03,Raw Data\07_03\07_03_test_40.csv,,Integrated Beam Prototype 1,-0.047269 -5e-06 -0.046184 5.6e-05 : 0.009066 -1.854254 0.052102 -0.06902 : 0.280633 0.004403 0.101502 0.014988,hi,88.0,20.0,0.0,0.0,25.0,0.0,12.0,0.45,40.0,28.10299707157133,24.74864368265821,25.92410087898886,28.208379560951563,27.876938788526868,26.097169629859074,24.74813229344888,26.69375389492976,24.39673908095574
07_10,Raw Data\07_10\07_10_test_1.csv,,Integrated Beam Prototype 2,-0.046833 -0.046833 -0.046016 -0.046016 : 0.009751 0.009751 0.048646 0.048646 : 0.451608 0.451608 0.359203 0.359203,hi,88.9,20.0,0.0,0.0,25.0,0.0,7.5,0.45,40.0,35.885116673393284,29.85067130269118,31.108130228603773,37.476152740674536,35.136858309547804,35.42990824552165,34.399419359671775,33.70959740593279,29.43534046956593
07_10,Raw Data\07_10\07_10_test_2.csv,,Integrated Beam Prototype 2,-0.046833 -0.046833 -0.046016 -0.046016 : 0.009751 0.009751 0.048646 0.048646 : 0.451608 0.451608 0.359203 0.359203,hi,88.9,20.0,0.0,0.0,25.0,0.0,7.5,0.45,40.0,31.30877231566477,32.193590026931595,34.430770655241865,37.96124527504457,37.22144271879964,33.571653622137994,34.60658595366759,28.789004978008983,30.47379341835625
07_10,Raw Data\07_10\07_10_test_3.csv,,Integrated Beam Prototype 2,-0.046833 -0.046833 -0.046016 -0.046016 : 0.009751 0.009751 0.048646 0.048646 : 0.451608 0.451608 0.359203 0.359203,hi,88.9,20.0,0.0,0.0,25.0,0.0,7.5,0.45,40.0,34.57271572365546,29.43899903406888,30.603765877830053,33.93810085646422,39.44013948739013,39.14639757692408,34.281682691350966,27.50788713371643,30.320790001094583
07_10,Raw Data\07_10\07_10_test_4.csv,,Integrated Beam Prototype 2,-0.046833 -0.046833 -0.046016 -0.046016 : 0.009751 0.009751 0.048646 0.048646 : 0.451608 0.451608 0.359203 0.359203,hi,88.9,20.0,0.0,0.0,25.0,0.0,7.5,0.45,40.0,33.57742509802587,28.11504544990294,33.189968365573414,33.07540221543222,34.969817911383416,35.97180196477062,33.5135798648079,28.48829146105454,27.87538990044896
07_10,Raw Data\07_10\07_10_test_5.csv,,Integrated Beam Prototype 2,-0.046833 -0.046833 -0.046016 -0.046016 : 0.009751 0.009751 0.048646 0.048646 : 0.451608 0.451608 0.359203 0.359203,hi,88.9,20.0,0.0,0.0,25.0,0.0,7.5,0.45,40.0,37.919041923233735,31.024479166761907,32.395856758694414,33.98377647359683,34.193783604880785,38.97698160139996,34.66176945257333,37.64918675034556,34.88599974024535
07_10,Raw Data\07_10\07_10_test_6.csv,,Integrated Beam Prototype 2,-0.046833 -0.046833 -0.046016 -0.046016 : 0.009751 0.009751 0.048646 0.048646 : 0.451608 0.451608 0.359203 0.359203,hi,88.9,20.0,0.0,0.0,25.0,0.0,7.5,0.45,40.0,31.317769206647288,29.360868882810014,32.57041729061101,32.8876105433511,35.20780850210537,34.26680492785576,33.04016141974822,28.6524107483649,31.936308897968622
07_10,Raw Data\07_10\07_10_test_7.csv,,Integrated Beam Prototype 2,-0.046833 -0.046833 -0.046016 -0.046016 : 0.009751 0.009751 0.048646 0.048646 : 0.451608 0.451608 0.359203 0.359203,hi,88.9,20.0,0.0,0.0,25.0,0.0,7.5,0.45,40.0,34.81597837927111,28.48680010389569,34.608044354668735,32.25361837857178,34.195653441091764,35.68016664812581,31.92059784868629,28.848652272662747,34.05486443849879
07_10,Raw Data\07_10\07_10_test_8.csv,,Integrated Beam Prototype 2,-0.046833 -0.046833 -0.046016 -0.046016 : 0.009751 0.009751 0.048646 0.048646 : 0.451608 0.451608 0.359203 0.359203,hi,88.9,20.0,0.0,0.0,25.0,0.0,7.5,0.45,40.0,34.21998526638499,29.93120465450307,28.194261935904184,36.835971487095314,34.15082734611683,35.53669493050002,34.39843864826553,27.433566855031696,31.56172572183813
07_10,Raw Data\07_10\07_10_test_9.csv,,Integrated Beam Prototype 2,-0.046833 -0.046833 -0.046016 -0.046016 : 0.009751 0.009751 0.048646 0.048646 : 0.451608 0.451608 0.359203 0.359203,hi,88.9,20.0,0.0,0.0,25.0,0.0,7.5,0.45,40.0,36.62343679334517,28.52013438815031,31.84884347538119,35.824475525830586,35.271366363914474,34.940440039158254,33.48696252603414,30.00326331836937,35.62372516530794
07_10,Raw Data\07_10\07_10_test_10.csv,,Integrated Beam Prototype 2,-0.046833 -0.046833 -0.046016 -0.046016 : 0.009751 0.009751 0.048646 0.048646 : 0.451608 0.451608 0.359203 0.359203,hi,88.9,20.0,0.0,0.0,25.0,0.0,7.5,0.45,40.0,31.871867706758163,31.681294412529887,28.67396142428588,36.48621409030795,35.80493043874581,36.80143667429117,36.75008271944051,29.96709337619925,30.190815249535056
07_10,Raw Data\07_10\07_10_test_11.csv,,Integrated Beam Prototype 2,-0.046833 -0.046833 -0.046016 -0.046016 : 0.009751 0.009751 0.048646 0.048646 : 0.451608 0.451608 0.359203 0.359203,hi,88.9,20.0,0.0,0.0,25.0,0.0,7.5,0.45,40.0,35.57179609657896,31.229097948235424,30.872561805531376,29.93168257243982,36.79254855158131,38.73842682671143,35.240853122720935,30.774612281259994,32.483698616612706
07_10,Raw Data\07_10\07_10_test_12.csv,,Integrated Beam Prototype 2,-0.046833 -0.046833 -0.046016 -0.046016 : 0.009751 0.009751 0.048646 0.048646 : 0.451608 0.451608 0.359203 0.359203,hi,88.9,20.0,0.0,0.0,25.0,0.0,7.5,0.45,40.0,34.86939706811925,34.551855234616646,28.47447743150587,33.94115736654778,32.95749455696631,38.73186823291797,35.12848565075019,33.76523198171994,27.900577336253388
07_10,Raw Data\07_10\07_10_test_13.csv,,Integrated Beam Prototype 2,-0.046833 -0.046833 -0.046016 -0.046016 : 0.009751 0.009751 0.048646 0.048646 : 0.451608 0.451608 0.359203 0.359203,hi,88.9,20.0,0.0,0.0,25.0,0.0,7.5,0.45,40.0,36.076006442105054,28.517775979009752,33.33378562681271,37.15014134700319,33.08738965410497,37.53580533714015,30.56870231016097,33.85047302727618,31.95257073096308
07_10,Raw Data\07_10\07_10_test_14.csv,,Integrated Beam Prototype 2,-0.046833 -0.046833 -0.046016 -0.046016 : 0.009751 0.009751 0.048646 0.048646 : 0.451608 0.451608 0.359203 0.359203,hi,88.9,20.0,0.0,0.0,25.0,0.0,7.5,0.45,40.0,34.48771271118429,28.6945566140156,31.35313572137053,40.4539695151712,35.89674120431273,33.720260258127304,37.87000660547436,34.43333504084556,28.9711591452042
07_10,Raw Data\07_10\07_10_test_15.csv,,Integrated Beam Prototype 2,-0.046833 -0.046833 -0.046016 -0.046016 : 0.009751 0.009751 0.048646 0.048646 : 0.451608 0.451608 0.359203 0.359203,hi,88.9,20.0,0.0,0.0,25.0,0.0,7.5,0.45,40.0,35.778427003554405,33.42579063247941,32.76256039388154,33.979120624883706,36.88169451228212,37.620140124145486,32.39639368486689,27.2042824456618,33.13243044617364
07_10,Raw Data\07_10\07_10_test_16.csv,,Integrated Beam Prototype 2,-0.046833 -0.046833 -0.046016 -0.046016 : 0.009751 0.009751 0.048646 0.048646 : 0.451608 0.451608 0.359203 0.359203,med,89.0,20.0,0.0,0.0,25.0,0.0,9.0,0.45,30.0,21.31683657407651,18.8868881047902,21.09250344571669,26.078871402564047,24.353624434742724,24.35145695122557,25.44339411363447,25.89690368385951,24.217463782586822
07_10,Raw Data\07_10\07_10_test_17.csv,,Integrated Beam Prototype 2,-0.046833 -0.046833 -0.046016 -0.046016 : 0.009751 0.009751 0.048646 0.048646 : 0.451608 0.451608 0.359203 0.359203,med,89.0,20.0,0.0,0.0,25.0,0.0,9.0,0.45,30.0,21.451789616862623,20.564458275565247,22.01696889222169,24.73082509703584,21.82238039203643,23.533089097508395,24.71247871523411,25.14458912906146,20.312796724126343
07_10,Raw Data\07_10\07_10_test_18.csv,,Integrated Beam Prototype 2,-0.046833 -0.046833 -0.046016 -0.046016 : 0.009751 0.009751 0.048646 0.048646 : 0.451608 0.451608 0.359203 0.359203,med,89.0,20.0,0.0,0.0,25.0,0.0,9.0,0.45,30.0,20.15025471187328,20.94370113659687,18.832696329275446,25.679627053211963,24.860422798151465,26.53903560880365,21.865258240107664,27.02315706970769,22.87870683839921
07_10,Raw Data\07_10\07_10_test_19.csv,,Integrated Beam Prototype 2,-0.046833 -0.046833 -0.046016 -0.046016 : 0.009751 0.009751 0.048646 0.048646 : 0.451608 0.451608 0.359203 0.359203,med,89.0,20.0,0.0,0.0,25.0,0.0,9.0,0.45,30.0,17.60753914561008,19.101877713010754,20.034440104964887,23.01105385462579,23.10000868054172,23.841875573773027,22.834834456978488,25.230560470230262,24.20404629636217
07_10,Raw Data\07_10\07_10_test_20.csv,,Integrated Beam Prototype 2,-0.046833 -0.046833 -0.046016 -0.046016 : 0.009751 0.009751 0.048646 0.048646 : 0.451608 0.451608 0.359203 0.359203,med,89.0,20.0,0.0,0.0,25.0,0.0,9.0,0.45,30.0,19.49509820696669,19.40451706916198,19.157098359293,20.429527497862384,24.398689437817087,22.922548840151123,22.150174863195662,24.069952114869984,20.53922718351005
07_10,Raw Data\07_10\07_10_test_21.csv,,Integrated Beam Prototype 2,-0.046833 -0.046833 -0.046016 -0.046016 : 0.009751 0.009751 0.048646 0.048646 : 0.451608 0.451608 0.359203 0.359203,med,89.0,20.0,0.0,0.0,25.0,0.0,9.0,0.45,30.0,26.670424725554977,18.78813485008189,20.23119067316585,23.592989810339056,23.725998977377067,25.536611970699635,24.86515680948358,21.22113299123812,18.975169455718568
07_10,Raw Data\07_10\07_10_test_22.csv,,Integrated Beam Prototype 2,-0.046833 -0.046833 -0.046016 -0.046016 : 0.009751 0.009751 0.048646 0.048646 : 0.451608 0.451608 0.359203 0.359203,med,89.0,20.0,0.0,0.0,25.0,0.0,9.0,0.45,30.0,21.390393813925822,18.892810472947502,18.19498151177024,25.001932523958686,22.98788855618871,22.49256231688864,19.82481529273177,25.57544574778306,23.593186911922302
07_10,Raw Data\07_10\07_10_test_23.csv,,Integrated Beam Prototype 2,-0.046833 -0.046833 -0.046016 -0.046016 : 0.009751 0.009751 0.048646 0.048646 : 0.451608 0.451608 0.359203 0.359203,med,89.0,20.0,0.0,0.0,25.0,0.0,9.0,0.45,30.0,17.507775210254003,20.567749904303657,20.920039267724523,25.837830498604102,22.45293232196418,22.15970751680091,22.81956929554517,22.44768885822856,22.64567014162265
07_10,Raw Data\07_10\07_10_test_24.csv,,Integrated Beam Prototype 2,-0.046833 -0.046833 -0.046016 -0.046016 : 0.009751 0.009751 0.048646 0.048646 : 0.451608 0.451608 0.359203 0.359203,med,89.0,20.0,0.0,0.0,25.0,0.0,9.0,0.45,30.0,21.241135802710367,18.624449184616527,19.401332156092163,24.046225203091065,23.41306523943666,23.975025458194143,19.59951894631631,24.4577681045293,24.089831077709498
07_10,Raw Data\07_10\07_10_test_25.csv,,Integrated Beam Prototype 2,-0.046833 -0.046833 -0.046016 -0.046016 : 0.009751 0.009751 0.048646 0.048646 : 0.451608 0.451608 0.359203 0.359203,med,89.0,20.0,0.0,0.0,25.0,0.0,9.0,0.45,30.0,22.17493370164373,19.196633473771666,18.888879014694066,24.902225160492154,22.0130313306266,22.70768724777604,21.2181345918369,24.818943484798453,18.43115753095423
07_10,Raw Data\07_10\07_10_test_26.csv,,Integrated Beam Prototype 2,-0.046833 -0.046833 -0.046016 -0.046016 : 0.009751 0.009751 0.048646 0.048646 : 0.451608 0.451608 0.359203 0.359203,med,89.0,20.0,0.0,0.0,25.0,0.0,9.0,0.45,30.0,19.8642269173833,18.957271640502263,19.485158465226565,25.94577669203917,23.75466845504404,25.41921705158813,21.154997142041733,23.8065366377442,20.9023801022084
07_10,Raw Data\07_10\07_10_test_27.csv,,Integrated Beam Prototype 2,-0.046833 -0.046833 -0.046016 -0.046016 : 0.009751 0.009751 0.048646 0.048646 : 0.451608 0.451608 0.359203 0.359203,med,89.0,20.0,0.0,0.0,25.0,0.0,9.0,0.45,30.0,21.33315079955264,21.269846195056548,20.65431380218808,24.85374452644102,21.40112045577069,23.8891708736292,21.1002615622386,24.497407921530684,21.13291304488224
07_10,Raw Data\07_10\07_10_test_28.csv,,Integrated Beam Prototype 2,-0.046833 -0.046833 -0.046016 -0.046016 : 0.009751 0.009751 0.048646 0.048646 : 0.451608 0.451608 0.359203 0.359203,med,89.0,20.0,0.0,0.0,25.0,0.0,9.0,0.45,30.0,19.7582103414845,20.312658066583804,19.983158897731435,25.80129040914831,23.75470670272484,21.45826284215656,22.458845454011787,24.772630976974533,22.24175960612471
07_10,Raw Data\07_10\07_10_test_29.csv,,Integrated Beam Prototype 2,-0.046833 -0.046833 -0.046016 -0.046016 : 0.009751 0.009751 0.048646 0.048646 : 0.451608 0.451608 0.359203 0.359203,med,89.0,20.0,0.0,0.0,25.0,0.0,9.0,0.45,30.0,23.832549635023057,21.87098400934904,18.991608227794423,27.48742589776173,19.72067963801756,25.13399734143546,21.041928324977,23.505918246828,20.25803817674279
07_10,Raw Data\07_10\07_10_test_30.csv,,Integrated Beam Prototype 2,-0.046833 -0.046833 -0.046016 -0.046016 : 0.009751 0.009751 0.048646 0.048646 : 0.451608 0.451608 0.359203 0.359203,med,89.0,20.0,0.0,0.0,25.0,0.0,9.0,0.45,30.0,20.184956395787736,22.04161598715783,16.61846537475286,24.581638935706493,21.773882638423384,22.6914190674978,23.038264694902903,22.36476141893015,17.970601812640727
07_10,Raw Data\07_10\07_10_test_31.csv,,Integrated Beam Prototype 2,-0.046833 -0.046833 -0.046016 -0.046016 : 0.009751 0.009751 0.048646 0.048646 : 0.451608 0.451608 0.359203 0.359203,lo,89.0,20.0,0.0,0.0,25.0,0.0,9.5,1.0,25.0,16.70956468980219,16.121050084823274,14.541446214057048,8.185347001742102,4.144796367978555,5.3801581970342784,12.329868267215426,7.842988421985797,8.356473871231529
07_10,Raw Data\07_10\07_10_test_32.csv,,Integrated Beam Prototype 2,-0.046833 -0.046833 -0.046016 -0.046016 : 0.009751 0.009751 0.048646 0.048646 : 0.451608 0.451608 0.359203 0.359203,lo,89.0,20.0,0.0,0.0,25.0,0.0,9.5,1.0,25.0,14.390683739788102,18.53587729117969,18.57500942493883,7.53221490955437,5.166966030323748,7.960503432039307,19.55006782253812,8.001004198950385,11.930130996787897
07_10,Raw Data\07_10\07_10_test_33.csv,,Integrated Beam Prototype 2,-0.046833 -0.046833 -0.046016 -0.046016 : 0.009751 0.009751 0.048646 0.048646 : 0.451608 0.451608 0.359203 0.359203,lo,89.0,20.0,0.0,0.0,25.0,0.0,9.5,1.0,25.0,15.356322902144036,19.712826105757067,20.52545397600125,7.337590934554266,7.346113877651176,11.949385033738787,15.029128279155842,9.404632108022048,10.011523707313174
07_10,Raw Data\07_10\07_10_test_34.csv,,Integrated Beam Prototype 2,-0.046833 -0.046833 -0.046016 -0.046016 : 0.009751 0.009751 0.048646 0.048646 : 0.451608 0.451608 0.359203 0.359203,lo,89.0,20.0,0.0,0.0,25.0,0.0,9.5,1.0,25.0,13.070293844023029,20.223140830443096,14.891733550511328,8.460446568454381,5.035361013979337,8.560383016343096,22.16259627122795,5.955045046205995,10.226997714146735
07_10,Raw Data\07_10\07_10_test_35.csv,,Integrated Beam Prototype 2,-0.046833 -0.046833 -0.046016 -0.046016 : 0.009751 0.009751 0.048646 0.048646 : 0.451608 0.451608 0.359203 0.359203,lo,89.0,20.0,0.0,0.0,25.0,0.0,9.5,1.0,25.0,15.886756328243834,13.85373399477642,17.807090379127374,6.661881860078162,5.876354166524322,11.487800031054842,20.699922774791283,7.725780486696745,10.236085339408888
07_10,Raw Data\07_10\07_10_test_36.csv,,Integrated Beam Prototype 2,-0.046833 -0.046833 -0.046016 -0.046016 : 0.009751 0.009751 0.048646 0.048646 : 0.451608 0.451608 0.359203 0.359203,lo,89.0,20.0,0.0,0.0,25.0,0.0,9.5,1.0,25.0,14.48511085312202,16.27169408403528,15.053307177818857,8.298816978376902,11.464525849900127,9.242674371351017,29.201176571549915,6.61953628483071,13.83648361069204
07_10,Raw Data\07_10\07_10_test_37.csv,,Integrated Beam Prototype 2,-0.046833 -0.046833 -0.046016 -0.046016 : 0.009751 0.009751 0.048646 0.048646 : 0.451608 0.451608 0.359203 0.359203,lo,89.0,20.0,0.0,0.0,25.0,0.0,9.5,1.0,25.0,14.8278318783386,15.01696656848702,15.173253733458274,9.368362735623723,6.598357113608923,4.60960913210133,22.573542811762035,7.638585849057904,8.822869815767826
07_10,Raw Data\07_10\07_10_test_38.csv,,Integrated Beam Prototype 2,-0.046833 -0.046833 -0.046016 -0.046016 : 0.009751 0.009751 0.048646 0.048646 : 0.451608 0.451608 0.359203 0.359203,lo,89.0,20.0,0.0,0.0,25.0,0.0,9.5,1.0,25.0,13.902182420739988,13.17377668849979,20.90197830976919,10.862806102515872,6.328184824265892,8.867367008083868,20.946515903773538,7.153285172309978,9.423622143387384
07_10,Raw Data\07_10\07_10_test_39.csv,,Integrated Beam Prototype 2,-0.046833 -0.046833 -0.046016 -0.046016 : 0.009751 0.009751 0.048646 0.048646 : 0.451608 0.451608 0.359203 0.359203,lo,89.0,20.0,0.0,0.0,25.0,0.0,9.5,1.0,25.0,15.195081776259997,14.460637482366172,18.053841999612263,6.826534974694752,7.560741929382746,8.132189503277216,21.329240542537065,8.196988291692286,11.02077242631314
07_10,Raw Data\07_10\07_10_test_40.csv,,Integrated Beam Prototype 2,-0.046833 -0.046833 -0.046016 -0.046016 : 0.009751 0.009751 0.048646 0.048646 : 0.451608 0.451608 0.359203 0.359203,lo,89.0,20.0,0.0,0.0,25.0,0.0,9.5,1.0,25.0,15.223429989071176,14.494318533173075,16.383533415722585,9.639850140181984,7.898670697909015,8.791211937879424,23.67959956368204,9.381951536118889,12.53902813149953
07_10,Raw Data\07_10\07_10_test_41.csv,,Integrated Beam Prototype 2,-0.046833 -0.046833 -0.046016 -0.046016 : 0.009751 0.009751 0.048646 0.048646 : 0.451608 0.451608 0.359203 0.359203,lo,89.0,20.0,0.0,0.0,25.0,0.0,9.5,1.0,25.0,15.03217059793794,16.677706843439186,16.32563274104397,7.682741356252765,6.684697217659346,9.42978963695591,24.67755911236049,10.208763454031,11.411868947943104
07_10,Raw Data\07_10\07_10_test_42.csv,,Integrated Beam Prototype 2,-0.046833 -0.046833 -0.046016 -0.046016 : 0.009751 0.009751 0.048646 0.048646 : 0.451608 0.451608 0.359203 0.359203,lo,89.0,20.0,0.0,0.0,25.0,0.0,9.5,1.0,25.0,14.436641511241785,15.098458673206247,17.700413907475216,7.949842364064859,5.602021869169207,7.830242732276142,24.71292071011831,8.003650293893424,10.284804066314804
07_10,Raw Data\07_10\07_10_test_43.csv,,Integrated Beam Prototype 2,-0.046833 -0.046833 -0.046016 -0.046016 : 0.009751 0.009751 0.048646 0.048646 : 0.451608 0.451608 0.359203 0.359203,lo,89.0,20.0,0.0,0.0,25.0,0.0,9.5,1.0,25.0,12.425628695797355,16.101541080742976,17.77106095724431,8.47018941835489,6.861805912342575,6.884202820001797,17.237953440276897,8.298929213885303,11.540901681716498
07_10,Raw Data\07_10\07_10_test_44.csv,,Integrated Beam Prototype 2,-0.046833 -0.046833 -0.046016 -0.046016 : 0.009751 0.009751 0.048646 0.048646 : 0.451608 0.451608 0.359203 0.359203,lo,89.0,20.0,0.0,0.0,25.0,0.0,9.5,1.0,25.0,15.017040051855291,14.399890198420154,18.59851238375392,7.420183837295205,7.291465358602069,9.590475353050005,26.04659217979533,6.755812956677703,10.061677728544296
07_10,Raw Data\07_10\07_10_test_45.csv,,Integrated Beam Prototype 2,-0.046833 -0.046833 -0.046016 -0.046016 : 0.009751 0.009751 0.048646 0.048646 : 0.451608 0.451608 0.359203 0.359203,lo,89.0,20.0,0.0,0.0,25.0,0.0,9.5,1.0,25.0,14.79982921092559,14.54583163543602,14.978254581460732,8.01011586306288,8.05611511135594,9.75219214118882,26.253530378783463,9.527065157626264,12.970473941681387
07_10,Raw Data\07_10\07_10_test_101.csv,,Integrated Beam Prototype 3,-0.046833 -0.046833 -0.046016 -0.046016 : 0.009751 0.009751 0.048646 0.048646 : 0.451608 0.451608 0.359203 0.359203,lo,89.0,15.0,0.0,0.0,25.0,0.0,9.5,1.0,25.0,20.44097930018806,18.183310483783814,18.06060083410344,11.168695645250793,5.28158423716439,10.28416066320071,14.767349302973791,8.98862190257627,15.867498419795329
07_10,Raw Data\07_10\07_10_test_102.csv,,Integrated Beam Prototype 3,-0.046833 -0.046833 -0.046016 -0.046016 : 0.009751 0.009751 0.048646 0.048646 : 0.451608 0.451608 0.359203 0.359203,lo,89.0,15.0,0.0,0.0,25.0,0.0,9.5,1.0,25.0,19.27383464347441,20.566365921603005,19.235880423878783,10.459898762532784,11.70235618449205,7.779614937253719,32.64160653039924,9.040522530834323,12.398436983894628
07_10,Raw Data\07_10\07_10_test_103.csv,,Integrated Beam Prototype 3,-0.046833 -0.046833 -0.046016 -0.046016 : 0.009751 0.009751 0.048646 0.048646 : 0.451608 0.451608 0.359203 0.359203,lo,89.0,15.0,0.0,0.0,25.0,0.0,9.5,1.0,25.0,13.857405144861682,17.743549038786142,31.06471442767754,11.656916023078308,7.214082684274685,6.087722884662789,21.509541500826103,13.086154601339556,8.430844447043368
07_10,Raw Data\07_10\07_10_test_104.csv,,Integrated Beam Prototype 3,-0.046833 -0.046833 -0.046016 -0.046016 : 0.009751 0.009751 0.048646 0.048646 : 0.451608 0.451608 0.359203 0.359203,lo,89.0,15.0,0.0,0.0,25.0,0.0,9.5,1.0,25.0,17.02903786432154,16.73005740595793,20.43453936374718,6.452563188024573,8.092418729797,6.203074932219123,36.91271075229123,8.258544649037148,10.467964458875354
07_10,Raw Data\07_10\07_10_test_105.csv,,Integrated Beam Prototype 3,-0.046833 -0.046833 -0.046016 -0.046016 : 0.009751 0.009751 0.048646 0.048646 : 0.451608 0.451608 0.359203 0.359203,lo,89.0,15.0,0.0,0.0,25.0,0.0,9.5,1.0,25.0,19.86694306730375,21.747179168288927,23.370126205260743,10.445689139516652,7.437399664012856,6.494839443654342,15.45694880034134,6.118680029525242,12.856991340725855
07_10,Raw Data\07_10\07_10_test_106.csv,,Integrated Beam Prototype 3,-0.046833 -0.046833 -0.046016 -0.046016 : 0.009751 0.009751 0.048646 0.048646 : 0.451608 0.451608 0.359203 0.359203,lo,89.0,15.0,0.0,0.0,25.0,0.0,9.5,1.0,25.0,18.342349069164207,18.646821484630006,17.476678855608018,10.709622480280776,7.328641018883188,7.479585446491717,15.46759020769851,7.594670383334369,18.550339254701303
07_10,Raw Data\07_10\07_10_test_107.csv,,Integrated Beam Prototype 3,-0.046833 -0.046833 -0.046016 -0.046016 : 0.009751 0.009751 0.048646 0.048646 : 0.451608 0.451608 0.359203 0.359203,lo,89.0,15.0,0.0,0.0,25.0,0.0,9.5,1.0,25.0,14.9765909356312,18.67028025137838,20.11320107781701,10.343494599726732,7.420396004570055,11.932365879901663,13.248158531570953,7.372489274017714,14.657492518823954
07_10,Raw Data\07_10\07_10_test_108.csv,,Integrated Beam Prototype 3,-0.046833 -0.046833 -0.046016 -0.046016 : 0.009751 0.009751 0.048646 0.048646 : 0.451608 0.451608 0.359203 0.359203,lo,89.0,15.0,0.0,0.0,25.0,0.0,9.5,1.0,25.0,15.063714400046235,15.633691521338328,31.32367188663716,14.2779630845398,8.239860842565449,7.654430455313017,26.479501987767,6.04156049359075,13.6683507459927
07_10,Raw Data\07_10\07_10_test_109.csv,,Integrated Beam Prototype 3,-0.046833 -0.046833 -0.046016 -0.046016 : 0.009751 0.009751 0.048646 0.048646 : 0.451608 0.451608 0.359203 0.359203,lo,89.0,15.0,0.0,0.0,25.0,0.0,9.5,1.0,25.0,14.357818610762449,15.04715830524716,15.16581260245412,9.723046727218255,14.199607250787516,7.020808052154142,16.00635661409034,7.862165238059773,9.070126594907206
07_10,Raw Data\07_10\07_10_test_110.csv,,Integrated Beam Prototype 3,-0.046833 -0.046833 -0.046016 -0.046016 : 0.009751 0.009751 0.048646 0.048646 : 0.451608 0.451608 0.359203 0.359203,lo,89.0,15.0,0.0,0.0,25.0,0.0,9.5,1.0,25.0,16.748492547723366,15.056057098627583,25.55752004882696,11.157498748046432,9.610024292809872,4.032148509405068,29.169747058673835,7.81681649077348,11.056337330810662
07_10,Raw Data\07_10\07_10_test_111.csv,,Integrated Beam Prototype 3,-0.046833 -0.046833 -0.046016 -0.046016 : 0.009751 0.009751 0.048646 0.048646 : 0.451608 0.451608 0.359203 0.359203,lo,89.0,15.0,0.0,0.0,25.0,0.0,9.5,1.0,25.0,16.86222542612544,17.310156995511683,15.221347456950424,10.352523320464927,8.037908487154287,9.44789071568268,20.37474585776985,10.725235956145475,14.304597472481497
07_10,Raw Data\07_10\07_10_test_112.csv,,Integrated Beam Prototype 3,-0.046833 -0.046833 -0.046016 -0.046016 : 0.009751 0.009751 0.048646 0.048646 : 0.451608 0.451608 0.359203 0.359203,lo,89.0,15.0,0.0,0.0,25.0,0.0,9.5,1.0,25.0,16.87231478801003,15.93127870161648,25.271496404555258,10.375014899894945,6.196454660825624,14.643637961352876,16.835556710047477,8.152843082195737,14.134166120049636
07_10,Raw Data\07_10\07_10_test_113.csv,,Integrated Beam Prototype 3,-0.046833 -0.046833 -0.046016 -0.046016 : 0.009751 0.009751 0.048646 0.048646 : 0.451608 0.451608 0.359203 0.359203,lo,89.0,15.0,0.0,0.0,25.0,0.0,9.5,1.0,25.0,14.313292351976662,18.096837666047914,16.524882620225885,12.023915917295817,7.970881263144051,12.524907411803934,22.221469714127043,12.531544961053736,11.139727481703083
07_10,Raw Data\07_10\07_10_test_114.csv,,Integrated Beam Prototype 3,-0.046833 -0.046833 -0.046016 -0.046016 : 0.009751 0.009751 0.048646 0.048646 : 0.451608 0.451608 0.359203 0.359203,lo,89.0,15.0,0.0,0.0,25.0,0.0,9.5,1.0,25.0,14.934444157463068,15.45143530588211,22.37832485714013,8.421272726705814,9.780301549710227,11.870962428583454,25.707463983250843,12.41931140172711,15.097492513667476
07_10,Raw Data\07_10\07_10_test_115.csv,,Integrated Beam Prototype 3,-0.046833 -0.046833 -0.046016 -0.046016 : 0.009751 0.009751 0.048646 0.048646 : 0.451608 0.451608 0.359203 0.359203,lo,89.0,15.0,0.0,0.0,25.0,0.0,9.5,1.0,25.0,18.40158280879199,14.98169167074452,23.67889584685877,10.128045927940311,5.741254448686963,6.365396862207443,21.48239445776605,11.106399986960952,19.03877832270164
07_10,Raw Data\07_10\07_10_test_116.csv,,Integrated Beam Prototype 3,-0.046833 -0.046833 -0.046016 -0.046016 : 0.009751 0.009751 0.048646 0.048646 : 0.451608 0.451608 0.359203 0.359203,med,89.0,15.0,0.0,0.0,25.0,0.0,9.0,0.5,30.0,24.388496068096504,23.51194881725005,22.780183316738466,27.66341852344872,29.34275654315637,28.279079286134408,25.81628787728743,27.17300135945348,23.27272788419088
07_10,Raw Data\07_10\07_10_test_117.csv,,Integrated Beam Prototype 3,-0.046833 -0.046833 -0.046016 -0.046016 : 0.009751 0.009751 0.048646 0.048646 : 0.451608 0.451608 0.359203 0.359203,med,89.0,15.0,0.0,0.0,25.0,0.0,9.0,0.5,30.0,22.218033848710384,18.556685527700694,20.142824044019942,31.920322377640453,26.97834725833121,26.77375476142001,24.30346343428396,29.55898981924051,24.655599006492867
07_10,Raw Data\07_10\07_10_test_118.csv,,Integrated Beam Prototype 3,-0.046833 -0.046833 -0.046016 -0.046016 : 0.009751 0.009751 0.048646 0.048646 : 0.451608 0.451608 0.359203 0.359203,med,89.0,15.0,0.0,0.0,25.0,0.0,9.0,0.5,30.0,20.99388112986012,22.398280150922712,20.71378765899289,28.04985488736388,26.3162291626825,28.519198322325103,25.114080447890306,27.309374911319445,26.23477347306988
07_10,Raw Data\07_10\07_10_test_119.csv,,Integrated Beam Prototype 3,-0.046833 -0.046833 -0.046016 -0.046016 : 0.009751 0.009751 0.048646 0.048646 : 0.451608 0.451608 0.359203 0.359203,med,89.0,15.0,0.0,0.0,25.0,0.0,9.0,0.5,30.0,25.23779297501964,19.41569281947955,20.74133183366502,25.27916908167776,24.01707573424292,22.64614263783936,22.24662129125313,23.10810596356329,17.344246957992
07_10,Raw Data\07_10\07_10_test_120.csv,,Integrated Beam Prototype 3,-0.046833 -0.046833 -0.046016 -0.046016 : 0.009751 0.009751 0.048646 0.048646 : 0.451608 0.451608 0.359203 0.359203,med,89.0,15.0,0.0,0.0,25.0,0.0,9.0,0.5,30.0,26.074914177801624,21.90643768014724,20.01672657304653,26.97758309459604,27.034748544178537,26.08279378487856,25.277439087764503,20.354942026014424,20.99152449688983
07_10,Raw Data\07_10\07_10_test_121.csv,,Integrated Beam Prototype 3,-0.046833 -0.046833 -0.046016 -0.046016 : 0.009751 0.009751 0.048646 0.048646 : 0.451608 0.451608 0.359203 0.359203,med,89.0,15.0,0.0,0.0,25.0,0.0,9.0,0.5,30.0,18.1919977669254,24.251681098748453,22.38481907834641,24.216501780852443,22.233628628257748,23.628171678276388,15.805419547205627,25.391068709119644,20.34161164531533
07_10,Raw Data\07_10\07_10_test_122.csv,,Integrated Beam Prototype 3,-0.046833 -0.046833 -0.046016 -0.046016 : 0.009751 0.009751 0.048646 0.048646 : 0.451608 0.451608 0.359203 0.359203,med,89.0,15.0,0.0,0.0,25.0,0.0,9.0,0.5,30.0,20.01890660952787,26.148499591434348,30.49020618929418,26.353088509744254,23.872368152455536,25.38998440544997,22.89829948170043,23.49150538402648,22.1494421021594
07_10,Raw Data\07_10\07_10_test_123.csv,,Integrated Beam Prototype 3,-0.046833 -0.046833 -0.046016 -0.046016 : 0.009751 0.009751 0.048646 0.048646 : 0.451608 0.451608 0.359203 0.359203,med,89.0,15.0,0.0,0.0,25.0,0.0,9.0,0.5,30.0,21.4859324370282,21.90479850643589,22.68395138021576,26.28338241079117,22.62218367550116,25.318833786831608,24.037949289131635,25.33519264093493,21.46730327164627
07_10,Raw Data\07_10\07_10_test_124.csv,,Integrated Beam Prototype 3,-0.046833 -0.046833 -0.046016 -0.046016 : 0.009751 0.009751 0.048646 0.048646 : 0.451608 0.451608 0.359203 0.359203,med,89.0,15.0,0.0,0.0,25.0,0.0,9.0,0.5,30.0,22.11363682140309,19.54486850897849,22.18553918814905,24.777977715747166,24.47012571046717,27.626358328806813,23.687401986570865,23.97635636105003,24.809877396120463
07_10,Raw Data\07_10\07_10_test_125.csv,,Integrated Beam Prototype 3,-0.046833 -0.046833 -0.046016 -0.046016 : 0.009751 0.009751 0.048646 0.048646 : 0.451608 0.451608 0.359203 0.359203,med,89.0,15.0,0.0,0.0,25.0,0.0,9.0,0.5,30.0,19.961842358509045,21.11921934298488,21.70466587118985,26.92570620829987,24.195010769933933,25.75577690607697,24.227904703703377,27.72348571801609,19.590258432721985
07_10,Raw Data\07_10\07_10_test_126.csv,,Integrated Beam Prototype 3,-0.046833 -0.046833 -0.046016 -0.046016 : 0.009751 0.009751 0.048646 0.048646 : 0.451608 0.451608 0.359203 0.359203,med,89.0,15.0,0.0,0.0,25.0,0.0,9.0,0.5,30.0,19.37852344525633,18.67367635937025,23.517496054050923,27.480450014475,28.13204382623713,28.210856860788923,27.21696312010536,21.95710122741486,26.3703148069444
07_10,Raw Data\07_10\07_10_test_127.csv,,Integrated Beam Prototype 3,-0.046833 -0.046833 -0.046016 -0.046016 : 0.009751 0.009751 0.048646 0.048646 : 0.451608 0.451608 0.359203 0.359203,med,89.0,15.0,0.0,0.0,25.0,0.0,9.0,0.5,30.0,23.91748043484201,24.24042743927286,18.571652960530606,29.334510413164534,26.385142010502936,25.794671201043336,24.60591322160428,26.29652556729147,20.26373642068354
07_10,Raw Data\07_10\07_10_test_128.csv,,Integrated Beam Prototype 3,-0.046833 -0.046833 -0.046016 -0.046016 : 0.009751 0.009751 0.048646 0.048646 : 0.451608 0.451608 0.359203 0.359203,med,89.0,15.0,0.0,0.0,25.0,0.0,9.0,0.5,30.0,20.619793130437213,22.46960590976026,20.52623575427873,22.67674131002697,22.96889733207152,26.48972459213733,28.73306172914089,27.776210620247703,20.26710791093175
07_10,Raw Data\07_10\07_10_test_129.csv,,Integrated Beam Prototype 3,-0.046833 -0.046833 -0.046016 -0.046016 : 0.009751 0.009751 0.048646 0.048646 : 0.451608 0.451608 0.359203 0.359203,med,89.0,15.0,0.0,0.0,25.0,0.0,9.0,0.5,30.0,22.17209379876759,22.301646623009898,21.260796063038057,27.385935365510548,27.80650288597255,26.372643048487248,22.97371384880383,24.139850563953328,23.101927659854592
07_10,Raw Data\07_10\07_10_test_130.csv,,Integrated Beam Prototype 3,-0.046833 -0.046833 -0.046016 -0.046016 : 0.009751 0.009751 0.048646 0.048646 : 0.451608 0.451608 0.359203 0.359203,med,89.0,15.0,0.0,0.0,25.0,0.0,9.0,0.5,30.0,22.00848035790802,22.831297601029583,24.10849101620608,24.722581651245907,21.9625751193204,25.927208198805104,25.856841599223245,24.395785914014816,23.48602706092673
07_10,Raw Data\07_10\07_10_test_131.csv,,Integrated Beam Prototype 3,-0.046833 -0.046833 -0.046016 -0.046016 : 0.009751 0.009751 0.048646 0.048646 : 0.451608 0.451608 0.359203 0.359203,hi,89.0,15.0,0.0,0.0,25.0,0.0,9.0,0.5,40.0,37.22817448041026,35.57094799504932,36.00532475523983,43.66331974460918,40.546854995410015,40.85112301285056,41.17933014431071,32.61418548831266,30.615172951978533
07_10,Raw Data\07_10\07_10_test_132.csv,,Integrated Beam Prototype 3,-0.046833 -0.046833 -0.046016 -0.046016 : 0.009751 0.009751 0.048646 0.048646 : 0.451608 0.451608 0.359203 0.359203,hi,89.0,15.0,0.0,0.0,25.0,0.0,9.0,0.5,40.0,37.89872640500648,36.1449576274305,37.288505588952354,43.07551140752297,40.798028020110365,48.43454004478241,41.37391787056109,36.247562454178485,38.966722396771786
07_10,Raw Data\07_10\07_10_test_133.csv,,Integrated Beam Prototype 3,-0.046833 -0.046833 -0.046016 -0.046016 : 0.009751 0.009751 0.048646 0.048646 : 0.451608 0.451608 0.359203 0.359203,hi,89.0,15.0,0.0,0.0,25.0,0.0,9.0,0.5,40.0,39.3888510778457,38.89173080548558,38.98468726148738,45.140464373986326,43.86889849741661,43.526076166679296,40.39005827160295,32.84033104590898,35.28968442231168
07_10,Raw Data\07_10\07_10_test_134.csv,,Integrated Beam Prototype 3,-0.046833 -0.046833 -0.046016 -0.046016 : 0.009751 0.009751 0.048646 0.048646 : 0.451608 0.451608 0.359203 0.359203,hi,89.0,15.0,0.0,0.0,25.0,0.0,9.0,0.5,40.0,42.40771893452315,34.785701863325606,44.76019833002575,36.40602208153116,41.55180938847938,46.53535184975683,41.42463379577592,29.593889776690027,38.419490218093856
07_10,Raw Data\07_10\07_10_test_135.csv,,Integrated Beam Prototype 3,-0.046833 -0.046833 -0.046016 -0.046016 : 0.009751 0.009751 0.048646 0.048646 : 0.451608 0.451608 0.359203 0.359203,hi,89.0,15.0,0.0,0.0,25.0,0.0,9.0,0.5,40.0,41.5045888177324,35.30826434054913,36.78057927704021,49.18643240385532,44.59667857206674,42.928723032605454,47.69915090955877,32.31460565337171,33.835416113398686
07_10,Raw Data\07_10\07_10_test_136.csv,,Integrated Beam Prototype 3,-0.046833 -0.046833 -0.046016 -0.046016 : 0.009751 0.009751 0.048646 0.048646 : 0.451608 0.451608 0.359203 0.359203,hi,89.0,15.0,0.0,0.0,25.0,0.0,9.0,0.5,40.0,41.11031301141044,37.319548825400176,39.672066645777285,41.41133400266043,41.53406860860436,44.02857908240348,39.19710596731636,34.141794976401755,38.37654488943703
07_10,Raw Data\07_10\07_10_test_137.csv,,Integrated Beam Prototype 3,-0.046833 -0.046833 -0.046016 -0.046016 : 0.009751 0.009751 0.048646 0.048646 : 0.451608 0.451608 0.359203 0.359203,hi,89.0,15.0,0.0,0.0,25.0,0.0,9.0,0.5,40.0,40.57686687081375,36.06935394725635,37.74425246592076,48.54775154864301,45.28590998699463,45.078853588209945,43.685962842551454,35.3862610621127,35.344683181879425
07_10,Raw Data\07_10\07_10_test_138.csv,,Integrated Beam Prototype 3,-0.046833 -0.046833 -0.046016 -0.046016 : 0.009751 0.009751 0.048646 0.048646 : 0.451608 0.451608 0.359203 0.359203,hi,89.0,15.0,0.0,0.0,25.0,0.0,9.0,0.5,40.0,41.41480970797282,34.203056805331805,37.05331673565496,39.11963444931552,41.5560704399315,45.124269891050766,39.64899904776895,31.2966199335905,41.68796741284242
07_10,Raw Data\07_10\07_10_test_139.csv,,Integrated Beam Prototype 3,-0.046833 -0.046833 -0.046016 -0.046016 : 0.009751 0.009751 0.048646 0.048646 : 0.451608 0.451608 0.359203 0.359203,hi,89.0,15.0,0.0,0.0,25.0,0.0,9.0,0.5,40.0,40.40444076238976,31.47510201945468,37.50232958493213,43.097153251292966,43.274225259774056,41.75300373583445,44.73657814429592,33.70020399447446,33.2398658097792
07_10,Raw Data\07_10\07_10_test_140.csv,,Integrated Beam Prototype 3,-0.046833 -0.046833 -0.046016 -0.046016 : 0.009751 0.009751 0.048646 0.048646 : 0.451608 0.451608 0.359203 0.359203,hi,89.0,15.0,0.0,0.0,25.0,0.0,9.0,0.5,40.0,41.71798384754516,38.82501281510918,35.92005222695064,39.450365186007375,41.95834770647558,45.13199729659205,41.30165172468807,36.76601803188832,32.91443049035358
07_10,Raw Data\07_10\07_10_test_141.csv,,Integrated Beam Prototype 3,-0.046833 -0.046833 -0.046016 -0.046016 : 0.009751 0.009751 0.048646 0.048646 : 0.451608 0.451608 0.359203 0.359203,hi,89.0,15.0,0.0,0.0,25.0,0.0,9.0,0.5,40.0,33.94984614201112,37.93850498040823,39.28924688855775,45.664582834802886,45.73056684644936,39.25568172832025,44.99985234594285,36.2053919809013,40.38927999212495
07_10,Raw Data\07_10\07_10_test_142.csv,,Integrated Beam Prototype 3,-0.046833 -0.046833 -0.046016 -0.046016 : 0.009751 0.009751 0.048646 0.048646 : 0.451608 0.451608 0.359203 0.359203,hi,89.0,15.0,0.0,0.0,25.0,0.0,9.0,0.5,40.0,37.863781978831,39.63292606923444,36.65451722650776,46.33070627405729,46.41924062139107,45.31521396454447,37.87778969949444,31.84570074845477,39.63628923452836
07_10,Raw Data\07_10\07_10_test_143.csv,,Integrated Beam Prototype 3,-0.046833 -0.046833 -0.046016 -0.046016 : 0.009751 0.009751 0.048646 0.048646 : 0.451608 0.451608 0.359203 0.359203,hi,89.0,15.0,0.0,0.0,25.0,0.0,9.0,0.5,40.0,40.43954857978126,35.77434660066456,34.10291356032829,40.405931995521925,44.275113364144566,42.75079175727564,40.262551169629845,32.85239154361319,35.88260848271406
07_10,Raw Data\07_10\07_10_test_144.csv,,Integrated Beam Prototype 3,-0.046833 -0.046833 -0.046016 -0.046016 : 0.009751 0.009751 0.048646 0.048646 : 0.451608 0.451608 0.359203 0.359203,hi,89.0,15.0,0.0,0.0,25.0,0.0,9.0,0.5,40.0,37.123248148266384,34.72380728039112,37.23995050333812,37.639199955280354,39.68201832220623,47.9079173367607,42.86954616568487,36.767453017637735,37.9507265950171
07_10,Raw Data\07_10\07_10_test_145.csv,,Integrated Beam Prototype 3,-0.046833 -0.046833 -0.046016 -0.046016 : 0.009751 0.009751 0.048646 0.048646 : 0.451608 0.451608 0.359203 0.359203,hi,89.0,15.0,0.0,0.0,25.0,0.0,9.0,0.5,40.0,39.65221793286822,38.70934921824206,35.47868183630908,44.475273192113605,43.41126889067879,43.01315729189619,42.331918313941905,33.995082626954954,37.2966148413988
