Date,File,user_note,rodney configuration,sensor calibration (k d c),stalk array (lo med hi),sensor height (cm),sensor yaw (degrees),sensor pitch (degrees),sensor roll (degrees),rate of travel (ft/min),angle of travel (degrees),sensor offset (cm to gauge 2),positionDDT_tol,forceDDT_tol,Stalk1,Stalk2,Stalk3,Stalk4,Stalk5,Stalk6,Stalk7,Stalk8,Stalk9
07_03,Raw Data\07_03\07_03_test_11.csv,,Integrated Beam Prototype 1,-0.047269 -5e-06 -0.046184 5.6e-05 : 0.009066 -1.854254 0.052102 -0.06902 : 0.280633 0.004403 0.101502 0.014988,lo,88.0,20.0,0.0,0.0,25.0,0.0,12.0,2.656308215105668,58.49408278016832,13.735774713398582,,10.00314238347351,6.419628125429157,6.270526150346502,8.60888250937567,15.505594479094617,7.241191206996196,13.352876741981223
07_03,Raw Data\07_03\07_03_test_12.csv,,Integrated Beam Prototype 1,-0.047269 -5e-06 -0.046184 5.6e-05 : 0.009066 -1.854254 0.052102 -0.06902 : 0.280633 0.004403 0.101502 0.014988,lo,88.0,20.0,0.0,0.0,25.0,0.0,12.0,2.656308215105668,58.49408278016832,12.253371182973664,,11.431551052161574,4.841506094501289,6.208825851861424,6.668147208214503,13.116189211158146,6.554512168909223,10.640543698358256
07_03,Raw Data\07_03\07_03_test_13.csv,,Integrated Beam Prototype 1,-0.047269 -5e-06 -0.046184 5.6e-05 : 0.009066 -1.854254 0.052102 -0.06902 : 0.280633 0.004403 0.101502 0.014988,lo,88.0,20.0,0.0,0.0,25.0,0.0,12.0,2.656308215105668,58.49408278016832,8.463213797695662,,11.773670973895658,6.73957210202947,5.217098255293387,5.42315896022949,13.127932687883412,8.259826669891961,13.284414724072036
07_03,Raw Data\07_03\07_03_test_14.csv,,Integrated Beam Prototype 1,-0.047269 -5e-06 -0.046184 5.6e-05 : 0.009066 -1.854254 0.052102 -0.06902 : 0.280633 0.004403 0.101502 0.014988,lo,88.0,20.0,0.0,0.0,25.0,0.0,12.0,2.656308215105668,58.49408278016832,9.123120294768556,,13.822622582066336,3.7038118850485726,5.615858191816148,5.492677368139127,10.80758750993839,5.851933188572371,12.574398692669249
07_03,Raw Data\07_03\07_03_test_15.csv,,Integrated Beam Prototype 1,-0.047269 -5e-06 -0.046184 5.6e-05 : 0.009066 -1.854254 0.052102 -0.06902 : 0.280633 0.004403 0.101502 0.014988,lo,88.0,20.0,0.0,0.0,25.0,0.0,12.0,2.656308215105668,58.49408278016832,8.305687768723871,,16.255586081292243,4.864562184903648,2.8217548838955486,7.326043585020649,8.890063368094971,7.336296589831266,11.209939532229422
07_03,Raw Data\07_03\07_03_test_16.csv,,Integrated Beam Prototype 1,-0.047269 -5e-06 -0.046184 5.6e-05 : 0.009066 -1.854254 0.052102 -0.06902 : 0.280633 0.004403 0.101502 0.014988,lo,88.0,20.0,0.0,0.0,25.0,0.0,12.0,2.656308215105668,58.49408278016832,10.258700872624784,,11.549186819748732,6.521239609422008,4.7941394182826045,6.000726635440461,10.207980636471111,6.112212118754605,10.945193751013075
07_03,Raw Data\07_03\07_03_test_17.csv,,Integrated Beam Prototype 1,-0.047269 -5e-06 -0.046184 5.6e-05 : 0.009066 -1.854254 0.052102 -0.06902 : 0.280633 0.004403 0.101502 0.014988,lo,88.0,20.0,0.0,0.0,25.0,0.0,12.0,2.656308215105668,58.49408278016832,9.100147047052836,,12.185353516289045,7.587606576004434,7.02982628818572,1.8217605910966248,13.14648476722306,5.841440554289693,7.779845024251783
07_03,Raw Data\07_03\07_03_test_18.csv,,Integrated Beam Prototype 1,-0.047269 -5e-06 -0.046184 5.6e-05 : 0.009066 -1.854254 0.052102 -0.06902 : 0.280633 0.004403 0.101502 0.014988,lo,88.0,20.0,0.0,0.0,25.0,0.0,12.0,2.656308215105668,58.49408278016832,8.884902418014475,,11.92222092129733,5.7393604985026805,6.200996420121502,6.335627447241301,15.232250177096784,6.618188267487291,9.687840286245224
07_03,Raw Data\07_03\07_03_test_19.csv,,Integrated Beam Prototype 1,-0.047269 -5e-06 -0.046184 5.6e-05 : 0.009066 -1.854254 0.052102 -0.06902 : 0.280633 0.004403 0.101502 0.014988,lo,88.0,20.0,0.0,0.0,25.0,0.0,12.0,2.656308215105668,58.49408278016832,14.001324677841192,,13.95151834643389,7.984227656216095,6.402774086999503,13.9610263199965,14.899012230354378,5.979431425872908,7.978644481276894
07_03,Raw Data\07_03\07_03_test_20.csv,,Integrated Beam Prototype 1,-0.047269 -5e-06 -0.046184 5.6e-05 : 0.009066 -1.854254 0.052102 -0.06902 : 0.280633 0.004403 0.101502 0.014988,lo,88.0,20.0,0.0,0.0,25.0,0.0,12.0,2.656308215105668,58.49408278016832,9.948019137222564,,13.21413268045298,6.940076786206486,3.855495656746749,8.475303676414198,18.248973328308978,6.14745556224898,9.77215606493362
07_03,Raw Data\07_03\07_03_test_21.csv,,Integrated Beam Prototype 1,-0.047269 -5e-06 -0.046184 5.6e-05 : 0.009066 -1.854254 0.052102 -0.06902 : 0.280633 0.004403 0.101502 0.014988,med,88.0,20.0,0.0,0.0,25.0,0.0,12.0,1.0587556244019978,90.0,16.005508922887124,15.093663368608071,14.234496204222918,17.202253678524215,18.07364504058999,18.77015020367608,17.678642700636523,20.59741734660432,15.80759827723278
07_03,Raw Data\07_03\07_03_test_22.csv,,Integrated Beam Prototype 1,-0.047269 -5e-06 -0.046184 5.6e-05 : 0.009066 -1.854254 0.052102 -0.06902 : 0.280633 0.004403 0.101502 0.014988,med,88.0,20.0,0.0,0.0,25.0,0.0,12.0,1.0587556244019978,90.0,15.977197208911017,16.32392545906205,16.158866900395036,18.49293713043536,16.60524818180195,21.18327123101959,16.62794948382556,18.64985504037621,17.966128373530424
07_03,Raw Data\07_03\07_03_test_23.csv,,Integrated Beam Prototype 1,-0.047269 -5e-06 -0.046184 5.6e-05 : 0.009066 -1.854254 0.052102 -0.06902 : 0.280633 0.004403 0.101502 0.014988,med,88.0,20.0,0.0,0.0,25.0,0.0,12.0,1.0587556244019978,90.0,16.119790341891566,15.33846672696496,15.17817703936898,18.69082196278108,15.86626663495793,17.592027520416462,18.48108391721375,17.67642139646101,15.839193929576444
07_03,Raw Data\07_03\07_03_test_24.csv,,Integrated Beam Prototype 1,-0.047269 -5e-06 -0.046184 5.6e-05 : 0.009066 -1.854254 0.052102 -0.06902 : 0.280633 0.004403 0.101502 0.014988,med,88.0,20.0,0.0,0.0,25.0,0.0,12.0,1.0587556244019978,90.0,17.583156632031898,16.604648088307936,14.549122562829652,21.58978876337877,19.736676714161664,17.59098109900025,18.02612914272634,19.60679621040208,15.94897333206839
07_03,Raw Data\07_03\07_03_test_25.csv,,Integrated Beam Prototype 1,-0.047269 -5e-06 -0.046184 5.6e-05 : 0.009066 -1.854254 0.052102 -0.06902 : 0.280633 0.004403 0.101502 0.014988,med,88.0,20.0,0.0,0.0,25.0,0.0,12.0,1.0587556244019978,90.0,15.736245511407176,15.773800198983649,16.47525053377118,18.346432341249614,17.732413207506966,15.552819377029085,17.83679060197897,17.659641503574576,16.61156693018858
07_03,Raw Data\07_03\07_03_test_26.csv,,Integrated Beam Prototype 1,-0.047269 -5e-06 -0.046184 5.6e-05 : 0.009066 -1.854254 0.052102 -0.06902 : 0.280633 0.004403 0.101502 0.014988,med,88.0,20.0,0.0,0.0,25.0,0.0,12.0,1.0587556244019978,90.0,15.84762257729181,15.19335236824884,13.827204450354504,17.2206596152947,17.4114760403899,16.206173745869766,15.74770867350099,16.574305303685605,13.008982869111511
07_03,Raw Data\07_03\07_03_test_27.csv,,Integrated Beam Prototype 1,-0.047269 -5e-06 -0.046184 5.6e-05 : 0.009066 -1.854254 0.052102 -0.06902 : 0.280633 0.004403 0.101502 0.014988,med,88.0,20.0,0.0,0.0,25.0,0.0,12.0,1.0587556244019978,90.0,16.463325129367835,16.82464568239046,15.108641046319024,18.332182013688843,16.896452091514202,15.667506114543109,17.254033963113798,19.373385752422465,13.848191987332552
07_03,Raw Data\07_03\07_03_test_28.csv,,Integrated Beam Prototype 1,-0.047269 -5e-06 -0.046184 5.6e-05 : 0.009066 -1.854254 0.052102 -0.06902 : 0.280633 0.004403 0.101502 0.014988,med,88.0,20.0,0.0,0.0,25.0,0.0,12.0,1.0587556244019978,90.0,16.903308484241254,17.490218890726794,14.620840924709794,19.33602035675354,17.42349644584225,18.933752552554743,17.656984197578453,22.50121649792051,15.808013054541805
07_03,Raw Data\07_03\07_03_test_29.csv,,Integrated Beam Prototype 1,-0.047269 -5e-06 -0.046184 5.6e-05 : 0.009066 -1.854254 0.052102 -0.06902 : 0.280633 0.004403 0.101502 0.014988,med,88.0,20.0,0.0,0.0,25.0,0.0,12.0,1.0587556244019978,90.0,16.18299092728951,15.887462171712365,16.948710851632455,18.094112541333267,17.034117384004254,17.76394293764836,16.986177463385275,19.63869617969013,16.20754107928884
07_03,Raw Data\07_03\07_03_test_30.csv,,Integrated Beam Prototype 1,-0.047269 -5e-06 -0.046184 5.6e-05 : 0.009066 -1.854254 0.052102 -0.06902 : 0.280633 0.004403 0.101502 0.014988,med,88.0,20.0,0.0,0.0,25.0,0.0,12.0,1.0587556244019978,90.0,15.51578346556598,16.467729043749515,15.737749891927198,19.37944756734032,17.02119281733461,16.613434157913524,15.761479938495112,17.351398309348166,16.45432104873853
07_03,Raw Data\07_03\07_03_test_31.csv,,Integrated Beam Prototype 1,-0.047269 -5e-06 -0.046184 5.6e-05 : 0.009066 -1.854254 0.052102 -0.06902 : 0.280633 0.004403 0.101502 0.014988,hi,88.0,20.0,0.0,0.0,25.0,0.0,12.0,4.0,90.0,25.78755990273333,22.365061501808096,21.333512181314497,28.000536627517643,27.08779706487376,27.25826127164896,28.51842515518568,27.697107199511063,26.679058967435232
07_03,Raw Data\07_03\07_03_test_32.csv,,Integrated Beam Prototype 1,-0.047269 -5e-06 -0.046184 5.6e-05 : 0.009066 -1.854254 0.052102 -0.06902 : 0.280633 0.004403 0.101502 0.014988,hi,88.0,20.0,0.0,0.0,25.0,0.0,12.0,4.0,90.0,27.3663373938144,24.16192206128517,22.50040173558811,26.57649428656661,26.478629273190474,29.43223073051332,27.49252967804177,27.799698460786534,27.38402082799201
07_03,Raw Data\07_03\07_03_test_33.csv,,Integrated Beam Prototype 1,-0.047269 -5e-06 -0.046184 5.6e-05 : 0.009066 -1.854254 0.052102 -0.06902 : 0.280633 0.004403 0.101502 0.014988,hi,88.0,20.0,0.0,0.0,25.0,0.0,12.0,4.0,90.0,28.454579375122343,22.93611244560032,23.78623372568288,28.22846233521153,28.404585674988216,26.550594934158973,28.59459123900731,26.466196255050487,26.079600938540647
07_03,Raw Data\07_03\07_03_test_34.csv,,Integrated Beam Prototype 1,-0.047269 -5e-06 -0.046184 5.6e-05 : 0.009066 -1.854254 0.052102 -0.06902 : 0.280633 0.004403 0.101502 0.014988,hi,88.0,20.0,0.0,0.0,25.0,0.0,12.0,4.0,90.0,27.40705647630209,25.078147217434573,23.34704520303809,28.88238124313138,28.590477115425173,27.58691415136652,26.8428896079887,28.545394998750705,25.097949163009385
07_03,Raw Data\07_03\07_03_test_35.csv,,Integrated Beam Prototype 1,-0.047269 -5e-06 -0.046184 5.6e-05 : 0.009066 -1.854254 0.052102 -0.06902 : 0.280633 0.004403 0.101502 0.014988,hi,88.0,20.0,0.0,0.0,25.0,0.0,12.0,4.0,90.0,27.41765812740956,24.0094362742809,22.966336299800226,30.52295648695965,26.37085022789462,27.40060585433335,28.593526446291595,26.899760766698808,26.8636487771651
07_03,Raw Data\07_03\07_03_test_36.csv,,Integrated Beam Prototype 1,-0.047269 -5e-06 -0.046184 5.6e-05 : 0.009066 -1.854254 0.052102 -0.06902 : 0.280633 0.004403 0.101502 0.014988,hi,88.0,20.0,0.0,0.0,25.0,0.0,12.0,4.0,90.0,28.837664284394307,23.76000617487993,22.16279050866712,28.80577593206113,26.0423223144004,29.48273046007707,27.281661377807342,27.661525934797595,26.906064138327203
07_03,Raw Data\07_03\07_03_test_37.csv,,Integrated Beam Prototype 1,-0.047269 -5e-06 -0.046184 5.6e-05 : 0.009066 -1.854254 0.052102 -0.06902 : 0.280633 0.004403 0.101502 0.014988,hi,88.0,20.0,0.0,0.0,25.0,0.0,12.0,4.0,90.0,29.96570915047064,25.29621885910228,24.8258178130009,27.9357645317254,27.25749109863335,28.309450858334063,27.00778388532015,28.598988036450606,28.187524541712744
07_03,Raw Data\07_03\07_03_test_38.csv,,Integrated Beam Prototype 1,-0.047269 -5e-06 -0.046184 5.6e-05 : 0.009066 -1.854254 0.052102 -0.06902 : 0.280633 0.004403 0.101502 0.014988,hi,88.0,20.0,0.0,0.0,25.0,0.0,12.0,4.0,90.0,28.801975302815126,24.48068636677491,23.30152572216668,26.97122993333928,26.20348532246036,27.730651554587748,29.03706026320337,30.49357066967823,24.214087858886224
07_03,Raw Data\07_03\07_03_test_39.csv,,Integrated Beam Prototype 1,-0.047269 -5e-06 -0.046184 5.6e-05 : 0.009066 -1.854254 0.052102 -0.06902 : 0.280633 0.004403 0.101502 0.014988,hi,88.0,20.0,0.0,0.0,25.0,0.0,12.0,4.0,90.0,28.238548592379747,22.980820437692884,22.46147075222036,26.211716961672927,27.486891273968613,26.26346256787044,26.785747352840747,27.98559956645596,28.261907434170016
07_03,Raw Data\07_03\07_03_test_40.csv,,Integrated Beam Prototype 1,-0.047269 -5e-06 -0.046184 5.6e-05 : 0.009066 -1.854254 0.052102 -0.06902 : 0.280633 0.004403 0.101502 0.014988,hi,88.0,20.0,0.0,0.0,25.0,0.0,12.0,4.0,90.0,27.381200532687984,24.85031060084252,25.596127203861247,28.914178566158103,26.417190903842023,26.01754445739253,24.941546861088906,26.7148843516376,25.4948064535458
07_10,Raw Data\07_10\07_10_test_1.csv,,Integrated Beam Prototype 2,-0.046833 -0.046833 -0.046016 -0.046016 : 0.009751 0.009751 0.048646 0.048646 : 0.451608 0.451608 0.359203 0.359203,hi,88.9,20.0,0.0,0.0,25.0,0.0,7.5,3.5023258919913007,85.17699090928807,33.657927309762535,30.19275195584273,30.80032107979609,35.181905961854035,34.27137272845704,36.10350819348263,34.2717748465709,33.80526421331586,30.475961559609072
07_10,Raw Data\07_10\07_10_test_2.csv,,Integrated Beam Prototype 2,-0.046833 -0.046833 -0.046016 -0.046016 : 0.009751 0.009751 0.048646 0.048646 : 0.451608 0.451608 0.359203 0.359203,hi,88.9,20.0,0.0,0.0,25.0,0.0,7.5,3.5023258919913007,85.17699090928807,30.698066122589857,31.04819275397305,33.09260678709127,36.51891462616777,36.57646725386281,33.07381644596974,34.40535403253703,29.62647205453677,32.07320065579435
07_10,Raw Data\07_10\07_10_test_3.csv,,Integrated Beam Prototype 2,-0.046833 -0.046833 -0.046016 -0.046016 : 0.009751 0.009751 0.048646 0.048646 : 0.451608 0.451608 0.359203 0.359203,hi,88.9,20.0,0.0,0.0,25.0,0.0,7.5,3.5023258919913007,85.17699090928807,34.38517253809045,30.237396512498467,31.191609624324503,34.21231967304644,37.54991741045708,37.09075147525384,34.88816756633813,28.10419763717841,30.662166659172254
07_10,Raw Data\07_10\07_10_test_4.csv,,Integrated Beam Prototype 2,-0.046833 -0.046833 -0.046016 -0.046016 : 0.009751 0.009751 0.048646 0.048646 : 0.451608 0.451608 0.359203 0.359203,hi,88.9,20.0,0.0,0.0,25.0,0.0,7.5,3.5023258919913007,85.17699090928807,34.62104485778195,27.030025578140386,31.95578440919949,31.33292804537268,34.750628107901726,34.93421724025351,33.498627417646006,28.585784211878508,29.46148739318453
07_10,Raw Data\07_10\07_10_test_5.csv,,Integrated Beam Prototype 2,-0.046833 -0.046833 -0.046016 -0.046016 : 0.009751 0.009751 0.048646 0.048646 : 0.451608 0.451608 0.359203 0.359203,hi,88.9,20.0,0.0,0.0,25.0,0.0,7.5,3.5023258919913007,85.17699090928807,35.143673880047594,30.521816452185867,31.823330042750545,34.073696537651124,32.922703976569174,37.46883761603136,35.35987961481726,36.44213751168846,33.66108359583318
07_10,Raw Data\07_10\07_10_test_6.csv,,Integrated Beam Prototype 2,-0.046833 -0.046833 -0.046016 -0.046016 : 0.009751 0.009751 0.048646 0.048646 : 0.451608 0.451608 0.359203 0.359203,hi,88.9,20.0,0.0,0.0,25.0,0.0,7.5,3.5023258919913007,85.17699090928807,31.23411148942888,29.011891770318684,30.82777627297564,32.68107503771336,34.04280413275442,34.504918269807206,33.10130953722494,30.118560412721404,34.502173567522284
07_10,Raw Data\07_10\07_10_test_7.csv,,Integrated Beam Prototype 2,-0.046833 -0.046833 -0.046016 -0.046016 : 0.009751 0.009751 0.048646 0.048646 : 0.451608 0.451608 0.359203 0.359203,hi,88.9,20.0,0.0,0.0,25.0,0.0,7.5,3.5023258919913007,85.17699090928807,33.44613982302588,29.04524605188069,34.27300538811103,33.157395865694525,32.66575943315089,34.98963185699364,31.12752836808609,29.62200246351681,34.33440234826848
07_10,Raw Data\07_10\07_10_test_8.csv,,Integrated Beam Prototype 2,-0.046833 -0.046833 -0.046016 -0.046016 : 0.009751 0.009751 0.048646 0.048646 : 0.451608 0.451608 0.359203 0.359203,hi,88.9,20.0,0.0,0.0,25.0,0.0,7.5,3.5023258919913007,85.17699090928807,33.911706320526235,28.388359709916188,28.489845765903365,36.296191384755296,33.09718517301036,35.68511091975483,34.25790741798664,28.80490204211322,31.41499518461279
07_10,Raw Data\07_10\07_10_test_9.csv,,Integrated Beam Prototype 2,-0.046833 -0.046833 -0.046016 -0.046016 : 0.009751 0.009751 0.048646 0.048646 : 0.451608 0.451608 0.359203 0.359203,hi,88.9,20.0,0.0,0.0,25.0,0.0,7.5,3.5023258919913007,85.17699090928807,35.11126624552183,28.752068469564,30.886976532849747,35.26425739980939,34.304630548870094,33.64606166597244,33.84283813506779,30.4309379779785,34.21188644462925
07_10,Raw Data\07_10\07_10_test_10.csv,,Integrated Beam Prototype 2,-0.046833 -0.046833 -0.046016 -0.046016 : 0.009751 0.009751 0.048646 0.048646 : 0.451608 0.451608 0.359203 0.359203,hi,88.9,20.0,0.0,0.0,25.0,0.0,7.5,3.5023258919913007,85.17699090928807,31.950341159300248,31.965922994160582,28.033348679127545,35.07056815507375,37.230858208292645,36.44749644279528,35.9296599776355,29.697144446452803,31.152291821772444
07_10,Raw Data\07_10\07_10_test_11.csv,,Integrated Beam Prototype 2,-0.046833 -0.046833 -0.046016 -0.046016 : 0.009751 0.009751 0.048646 0.048646 : 0.451608 0.451608 0.359203 0.359203,hi,88.9,20.0,0.0,0.0,25.0,0.0,7.5,3.5023258919913007,85.17699090928807,35.42071902195285,30.500572692722272,30.741312570127864,30.225675141569617,36.15624479807828,37.18078715409761,35.83401143751528,31.29200093787397,32.63157872163517
07_10,Raw Data\07_10\07_10_test_12.csv,,Integrated Beam Prototype 2,-0.046833 -0.046833 -0.046016 -0.046016 : 0.009751 0.009751 0.048646 0.048646 : 0.451608 0.451608 0.359203 0.359203,hi,88.9,20.0,0.0,0.0,25.0,0.0,7.5,3.5023258919913007,85.17699090928807,34.468962310551525,33.546863705786606,28.354120128471667,33.57023343522178,32.5564911887843,38.91534827348268,34.13083057121166,32.53765158588893,30.159044697815297
07_10,Raw Data\07_10\07_10_test_13.csv,,Integrated Beam Prototype 2,-0.046833 -0.046833 -0.046016 -0.046016 : 0.009751 0.009751 0.048646 0.048646 : 0.451608 0.451608 0.359203 0.359203,hi,88.9,20.0,0.0,0.0,25.0,0.0,7.5,3.5023258919913007,85.17699090928807,35.34102285651176,28.86502906767941,31.477293550567456,36.259910359366096,32.55958272966167,36.526454181028505,30.591852730869945,33.72331683632164,31.657699815350863
07_10,Raw Data\07_10\07_10_test_14.csv,,Integrated Beam Prototype 2,-0.046833 -0.046833 -0.046016 -0.046016 : 0.009751 0.009751 0.048646 0.048646 : 0.451608 0.451608 0.359203 0.359203,hi,88.9,20.0,0.0,0.0,25.0,0.0,7.5,3.5023258919913007,85.17699090928807,34.418233535223976,29.27309415548726,31.566354479551563,40.437007988520186,34.04428825652116,34.34970340332255,36.73439643031764,30.49271585454517,30.14893627206076
07_10,Raw Data\07_10\07_10_test_15.csv,,Integrated Beam Prototype 2,-0.046833 -0.046833 -0.046016 -0.046016 : 0.009751 0.009751 0.048646 0.048646 : 0.451608 0.451608 0.359203 0.359203,hi,88.9,20.0,0.0,0.0,25.0,0.0,7.5,3.5023258919913007,85.17699090928807,35.70004930144611,31.49894049108385,32.01016969803786,33.51227045496254,36.19900260970701,35.68102021198286,32.21309494337492,27.67715118211167,32.372272386016604
07_10,Raw Data\07_10\07_10_test_16.csv,,Integrated Beam Prototype 2,-0.046833 -0.046833 -0.046016 -0.046016 : 0.009751 0.009751 0.048646 0.048646 : 0.451608 0.451608 0.359203 0.359203,med,89.0,20.0,0.0,0.0,25.0,0.0,9.0,1.1975384794966597,86.94302543660443,21.42982358739151,19.841925470776864,21.30863212413833,25.674927432995613,23.91924856471695,24.104053551487407,25.288747012752616,24.56536768585624,22.97072682091347
07_10,Raw Data\07_10\07_10_test_17.csv,,Integrated Beam Prototype 2,-0.046833 -0.046833 -0.046016 -0.046016 : 0.009751 0.009751 0.048646 0.048646 : 0.451608 0.451608 0.359203 0.359203,med,89.0,20.0,0.0,0.0,25.0,0.0,9.0,1.1975384794966597,86.94302543660443,21.5781756973349,20.64152579278508,21.383527851834987,23.158744945188825,21.35017276210457,22.91440030693808,23.12521434924664,25.278786502250647,20.14573585191122
07_10,Raw Data\07_10\07_10_test_18.csv,,Integrated Beam Prototype 2,-0.046833 -0.046833 -0.046016 -0.046016 : 0.009751 0.009751 0.048646 0.048646 : 0.451608 0.451608 0.359203 0.359203,med,89.0,20.0,0.0,0.0,25.0,0.0,9.0,1.1975384794966597,86.94302543660443,20.029848097030413,20.14423425536535,18.92194833302716,25.068282144463623,25.467463486495863,25.66752841223297,21.70958642879162,26.93333802038467,21.63216683949545
07_10,Raw Data\07_10\07_10_test_19.csv,,Integrated Beam Prototype 2,-0.046833 -0.046833 -0.046016 -0.046016 : 0.009751 0.009751 0.048646 0.048646 : 0.451608 0.451608 0.359203 0.359203,med,89.0,20.0,0.0,0.0,25.0,0.0,9.0,1.1975384794966597,86.94302543660443,17.903553854679608,19.34587831726678,19.899014844192493,22.87120728983966,22.41782144795252,24.24927834283801,22.460325049286,24.87791435422461,22.485905542197347
07_10,Raw Data\07_10\07_10_test_20.csv,,Integrated Beam Prototype 2,-0.046833 -0.046833 -0.046016 -0.046016 : 0.009751 0.009751 0.048646 0.048646 : 0.451608 0.451608 0.359203 0.359203,med,89.0,20.0,0.0,0.0,25.0,0.0,9.0,1.1975384794966597,86.94302543660443,19.749986036809748,18.648251596064576,19.8771008933538,21.352124995065346,23.850759359586565,22.677741517847828,22.48675931839729,24.08860624585132,20.906480192227768
07_10,Raw Data\07_10\07_10_test_21.csv,,Integrated Beam Prototype 2,-0.046833 -0.046833 -0.046016 -0.046016 : 0.009751 0.009751 0.048646 0.048646 : 0.451608 0.451608 0.359203 0.359203,med,89.0,20.0,0.0,0.0,25.0,0.0,9.0,1.1975384794966597,86.94302543660443,23.55215496724328,19.714509649433094,20.44248404142358,23.35952473383859,22.42978962647572,24.27230478953049,24.40739721862549,21.71799824546295,19.01877879262113
07_10,Raw Data\07_10\07_10_test_22.csv,,Integrated Beam Prototype 2,-0.046833 -0.046833 -0.046016 -0.046016 : 0.009751 0.009751 0.048646 0.048646 : 0.451608 0.451608 0.359203 0.359203,med,89.0,20.0,0.0,0.0,25.0,0.0,9.0,1.1975384794966597,86.94302543660443,21.20920638081429,18.684828288189006,18.5866274989662,24.000900036716647,22.47585789167613,22.240017512012525,20.274317380705053,25.69804340726713,22.37698398291736
07_10,Raw Data\07_10\07_10_test_23.csv,,Integrated Beam Prototype 2,-0.046833 -0.046833 -0.046016 -0.046016 : 0.009751 0.009751 0.048646 0.048646 : 0.451608 0.451608 0.359203 0.359203,med,89.0,20.0,0.0,0.0,25.0,0.0,9.0,1.1975384794966597,86.94302543660443,18.428127228521785,20.73364413209731,19.854377584825595,24.11133069579828,22.555267237375546,21.74606052951132,22.309560055155643,23.05050851848534,22.36499469912098
07_10,Raw Data\07_10\07_10_test_24.csv,,Integrated Beam Prototype 2,-0.046833 -0.046833 -0.046016 -0.046016 : 0.009751 0.009751 0.048646 0.048646 : 0.451608 0.451608 0.359203 0.359203,med,89.0,20.0,0.0,0.0,25.0,0.0,9.0,1.1975384794966597,86.94302543660443,21.129451777983327,18.472705948730898,19.80353337330736,24.510506424126543,22.40673179446216,23.772395772720017,19.743043111852305,24.639903917262355,22.94628672891952
07_10,Raw Data\07_10\07_10_test_25.csv,,Integrated Beam Prototype 2,-0.046833 -0.046833 -0.046016 -0.046016 : 0.009751 0.009751 0.048646 0.048646 : 0.451608 0.451608 0.359203 0.359203,med,89.0,20.0,0.0,0.0,25.0,0.0,9.0,1.1975384794966597,86.94302543660443,21.43101085962738,19.544514142026944,18.830804331731706,24.34121697876621,22.077234893646164,22.61269875845956,21.202555787674527,23.21968765195823,19.67857665510196
07_10,Raw Data\07_10\07_10_test_26.csv,,Integrated Beam Prototype 2,-0.046833 -0.046833 -0.046016 -0.046016 : 0.009751 0.009751 0.048646 0.048646 : 0.451608 0.451608 0.359203 0.359203,med,89.0,20.0,0.0,0.0,25.0,0.0,9.0,1.1975384794966597,86.94302543660443,19.402333545959227,19.22223000043318,19.44751051661304,24.108237758534933,23.280695780128333,25.366379343254795,20.79565732360808,24.3029936244334,21.19021606417856
07_10,Raw Data\07_10\07_10_test_27.csv,,Integrated Beam Prototype 2,-0.046833 -0.046833 -0.046016 -0.046016 : 0.009751 0.009751 0.048646 0.048646 : 0.451608 0.451608 0.359203 0.359203,med,89.0,20.0,0.0,0.0,25.0,0.0,9.0,1.1975384794966597,86.94302543660443,20.59425082327024,21.97132198197553,19.85524044966312,24.89932528524112,22.390904523789825,24.70167950618495,20.867627830298176,23.60240466719012,21.528557867936787
07_10,Raw Data\07_10\07_10_test_28.csv,,Integrated Beam Prototype 2,-0.046833 -0.046833 -0.046016 -0.046016 : 0.009751 0.009751 0.048646 0.048646 : 0.451608 0.451608 0.359203 0.359203,med,89.0,20.0,0.0,0.0,25.0,0.0,9.0,1.1975384794966597,86.94302543660443,20.46156607545173,21.059339140232428,21.22854685667652,24.647269953430584,23.059625462326768,21.169258179691177,23.08925594296809,24.135526809509145,21.34725498822794
07_10,Raw Data\07_10\07_10_test_29.csv,,Integrated Beam Prototype 2,-0.046833 -0.046833 -0.046016 -0.046016 : 0.009751 0.009751 0.048646 0.048646 : 0.451608 0.451608 0.359203 0.359203,med,89.0,20.0,0.0,0.0,25.0,0.0,9.0,1.1975384794966597,86.94302543660443,22.252792874848783,21.50977023086162,19.10582540313752,26.410742200528976,20.633832780081903,23.60105732786574,21.1258077451682,23.62352083836192,20.29616545504498
07_10,Raw Data\07_10\07_10_test_30.csv,,Integrated Beam Prototype 2,-0.046833 -0.046833 -0.046016 -0.046016 : 0.009751 0.009751 0.048646 0.048646 : 0.451608 0.451608 0.359203 0.359203,med,89.0,20.0,0.0,0.0,25.0,0.0,9.0,1.1975384794966597,86.94302543660443,20.52165404818114,21.366769027456648,16.250894956924004,22.937017039166346,21.956610538391026,22.05822393561472,23.00289418547124,22.50022956577364,19.043474054567163
07_10,Raw Data\07_10\07_10_test_31.csv,,Integrated Beam Prototype 2,-0.046833 -0.046833 -0.046016 -0.046016 : 0.009751 0.009751 0.048646 0.048646 : 0.451608 0.451608 0.359203 0.359203,lo,89.0,20.0,0.0,0.0,25.0,0.0,9.5,1.7588735872000156,70.0,16.158522599516076,14.167518067907912,14.893646409293773,7.57383502212825,3.8924761267704016,5.689206454207113,13.24599775640519,8.236711752133852,9.29401766045596
07_10,Raw Data\07_10\07_10_test_32.csv,,Integrated Beam Prototype 2,-0.046833 -0.046833 -0.046016 -0.046016 : 0.009751 0.009751 0.048646 0.048646 : 0.451608 0.451608 0.359203 0.359203,lo,89.0,20.0,0.0,0.0,25.0,0.0,9.5,1.7588735872000156,70.0,13.742793707080436,17.960592263401953,18.16185510122252,7.440650447991008,4.5944130054046415,7.42874646653557,16.67059415648939,7.452565584814903,11.781177235080994
07_10,Raw Data\07_10\07_10_test_33.csv,,Integrated Beam Prototype 2,-0.046833 -0.046833 -0.046016 -0.046016 : 0.009751 0.009751 0.048646 0.048646 : 0.451608 0.451608 0.359203 0.359203,lo,89.0,20.0,0.0,0.0,25.0,0.0,9.5,1.7588735872000156,70.0,15.145204919688029,15.923565541862573,20.095213938885333,7.1201740303757655,7.076594379955251,12.01338487614812,15.332678609587228,9.268920358471652,9.47650460554558
07_10,Raw Data\07_10\07_10_test_34.csv,,Integrated Beam Prototype 2,-0.046833 -0.046833 -0.046016 -0.046016 : 0.009751 0.009751 0.048646 0.048646 : 0.451608 0.451608 0.359203 0.359203,lo,89.0,20.0,0.0,0.0,25.0,0.0,9.5,1.7588735872000156,70.0,13.546090155816955,15.55187190647111,16.52290964244418,7.911810380383106,5.068558696455931,9.032886833714084,18.112577533573702,6.31172201109712,9.454520502448188
07_10,Raw Data\07_10\07_10_test_35.csv,,Integrated Beam Prototype 2,-0.046833 -0.046833 -0.046016 -0.046016 : 0.009751 0.009751 0.048646 0.048646 : 0.451608 0.451608 0.359203 0.359203,lo,89.0,20.0,0.0,0.0,25.0,0.0,9.5,1.7588735872000156,70.0,16.525297508216028,15.005709318418225,18.44086793964501,6.569213356339617,5.961908026948426,9.473163669695705,21.434922339871022,7.422477253009688,9.807329316355
07_10,Raw Data\07_10\07_10_test_36.csv,,Integrated Beam Prototype 2,-0.046833 -0.046833 -0.046016 -0.046016 : 0.009751 0.009751 0.048646 0.048646 : 0.451608 0.451608 0.359203 0.359203,lo,89.0,20.0,0.0,0.0,25.0,0.0,9.5,1.7588735872000156,70.0,14.991559823728696,16.39101276729278,14.707338001988376,8.328030583058542,9.778785405123603,8.257165519940346,25.8671253040652,6.669174382262682,12.596998399551664
07_10,Raw Data\07_10\07_10_test_37.csv,,Integrated Beam Prototype 2,-0.046833 -0.046833 -0.046016 -0.046016 : 0.009751 0.009751 0.048646 0.048646 : 0.451608 0.451608 0.359203 0.359203,lo,89.0,20.0,0.0,0.0,25.0,0.0,9.5,1.7588735872000156,70.0,15.11074498073816,14.724201969273128,16.14199733888872,8.710945645742795,5.87305639401476,4.33656423301976,21.61815077558901,7.518946773241182,9.080187455232869
07_10,Raw Data\07_10\07_10_test_38.csv,,Integrated Beam Prototype 2,-0.046833 -0.046833 -0.046016 -0.046016 : 0.009751 0.009751 0.048646 0.048646 : 0.451608 0.451608 0.359203 0.359203,lo,89.0,20.0,0.0,0.0,25.0,0.0,9.5,1.7588735872000156,70.0,14.158921060422456,13.809127859444915,19.413424405392643,5.243536578055569,6.231268146400877,8.835142783878359,19.18011533442944,7.099550603709833,9.341340134235672
07_10,Raw Data\07_10\07_10_test_39.csv,,Integrated Beam Prototype 2,-0.046833 -0.046833 -0.046016 -0.046016 : 0.009751 0.009751 0.048646 0.048646 : 0.451608 0.451608 0.359203 0.359203,lo,89.0,20.0,0.0,0.0,25.0,0.0,9.5,1.7588735872000156,70.0,15.291055179319509,15.008902415753331,18.270820959853697,6.943759585577985,7.132898374000444,7.084876235528306,20.85846461173512,7.966962845007335,11.07206202120754
07_10,Raw Data\07_10\07_10_test_40.csv,,Integrated Beam Prototype 2,-0.046833 -0.046833 -0.046016 -0.046016 : 0.009751 0.009751 0.048646 0.048646 : 0.451608 0.451608 0.359203 0.359203,lo,89.0,20.0,0.0,0.0,25.0,0.0,9.5,1.7588735872000156,70.0,15.14121810297774,15.19890201309604,17.10210168729349,8.407703406401447,8.000164509938218,7.976666073291261,22.83662242523972,7.978904007035704,12.363674918915404
07_10,Raw Data\07_10\07_10_test_41.csv,,Integrated Beam Prototype 2,-0.046833 -0.046833 -0.046016 -0.046016 : 0.009751 0.009751 0.048646 0.048646 : 0.451608 0.451608 0.359203 0.359203,lo,89.0,20.0,0.0,0.0,25.0,0.0,9.5,1.7588735872000156,70.0,14.684694663838425,16.280007335341416,16.166261922209046,7.442203512691752,6.82288847177494,8.735478580939251,22.71913865668478,10.04596032937821,10.924536911450202
07_10,Raw Data\07_10\07_10_test_42.csv,,Integrated Beam Prototype 2,-0.046833 -0.046833 -0.046016 -0.046016 : 0.009751 0.009751 0.048646 0.048646 : 0.451608 0.451608 0.359203 0.359203,lo,89.0,20.0,0.0,0.0,25.0,0.0,9.5,1.7588735872000156,70.0,13.85298340093934,15.815398272521076,18.33425294499787,7.720484579468922,5.441080364551746,7.394133813091778,21.11398264652208,8.190904845019906,10.454876254195378
07_10,Raw Data\07_10\07_10_test_43.csv,,Integrated Beam Prototype 2,-0.046833 -0.046833 -0.046016 -0.046016 : 0.009751 0.009751 0.048646 0.048646 : 0.451608 0.451608 0.359203 0.359203,lo,89.0,20.0,0.0,0.0,25.0,0.0,9.5,1.7588735872000156,70.0,13.416132108980998,15.934415511997477,17.812425907513248,8.150572376203764,6.349291352611283,6.864138274225348,17.09236881395376,8.045289574581155,11.095844491781431
07_10,Raw Data\07_10\07_10_test_44.csv,,Integrated Beam Prototype 2,-0.046833 -0.046833 -0.046016 -0.046016 : 0.009751 0.009751 0.048646 0.048646 : 0.451608 0.451608 0.359203 0.359203,lo,89.0,20.0,0.0,0.0,25.0,0.0,9.5,1.7588735872000156,70.0,14.743232857478668,14.66228757181799,18.21530248222505,7.326420933247423,7.194442012388502,9.789098852378917,22.500416651130788,7.622288953529816,10.118005108093314
07_10,Raw Data\07_10\07_10_test_45.csv,,Integrated Beam Prototype 2,-0.046833 -0.046833 -0.046016 -0.046016 : 0.009751 0.009751 0.048646 0.048646 : 0.451608 0.451608 0.359203 0.359203,lo,89.0,20.0,0.0,0.0,25.0,0.0,9.5,1.7588735872000156,70.0,14.453883332342878,14.66269639024596,14.663515588657132,7.879059037057313,7.701235613032151,9.304039446335478,21.57329758437952,9.533825832044796,11.476406262959433
07_10,Raw Data\07_10\07_10_test_101.csv,,Integrated Beam Prototype 3,-0.046833 -0.046833 -0.046016 -0.046016 : 0.009751 0.009751 0.048646 0.048646 : 0.451608 0.451608 0.359203 0.359203,lo,89.0,15.0,0.0,0.0,25.0,0.0,9.5,2.254054038176331,51.28861161062099,20.442953542243124,17.05853972805124,17.413215546577597,11.751656204520929,5.569124256375867,10.014330250756396,14.187983684782912,9.464041353144593,15.478593191587835
07_10,Raw Data\07_10\07_10_test_102.csv,,Integrated Beam Prototype 3,-0.046833 -0.046833 -0.046016 -0.046016 : 0.009751 0.009751 0.048646 0.048646 : 0.451608 0.451608 0.359203 0.359203,lo,89.0,15.0,0.0,0.0,25.0,0.0,9.5,2.254054038176331,51.28861161062099,17.73692788846195,19.99984996572258,19.9119649972587,9.992847385050656,9.740040691884378,7.076469639009306,16.92999368437254,8.601375080516306,11.691614185710993
07_10,Raw Data\07_10\07_10_test_103.csv,,Integrated Beam Prototype 3,-0.046833 -0.046833 -0.046016 -0.046016 : 0.009751 0.009751 0.048646 0.048646 : 0.451608 0.451608 0.359203 0.359203,lo,89.0,15.0,0.0,0.0,25.0,0.0,9.5,2.254054038176331,51.28861161062099,14.067781228362769,17.22952987628308,25.916379952913783,8.996199584959317,7.155322034756824,6.6649047076689305,19.759037338919963,12.275620415760216,8.00285496370996
07_10,Raw Data\07_10\07_10_test_104.csv,,Integrated Beam Prototype 3,-0.046833 -0.046833 -0.046016 -0.046016 : 0.009751 0.009751 0.048646 0.048646 : 0.451608 0.451608 0.359203 0.359203,lo,89.0,15.0,0.0,0.0,25.0,0.0,9.5,2.254054038176331,51.28861161062099,17.20316595252188,16.82076301695084,16.74438958384216,6.989973809704527,8.381135965411316,6.00284543952734,20.89498790742129,8.006129628731864,8.968559179945292
07_10,Raw Data\07_10\07_10_test_105.csv,,Integrated Beam Prototype 3,-0.046833 -0.046833 -0.046016 -0.046016 : 0.009751 0.009751 0.048646 0.048646 : 0.451608 0.451608 0.359203 0.359203,lo,89.0,15.0,0.0,0.0,25.0,0.0,9.5,2.254054038176331,51.28861161062099,18.20399906654926,21.181620127518844,22.625203236285127,9.614071224113536,6.810015302077407,5.197849215373187,14.60177982263627,7.029555699522786,12.146740555189124
07_10,Raw Data\07_10\07_10_test_106.csv,,Integrated Beam Prototype 3,-0.046833 -0.046833 -0.046016 -0.046016 : 0.009751 0.009751 0.048646 0.048646 : 0.451608 0.451608 0.359203 0.359203,lo,89.0,15.0,0.0,0.0,25.0,0.0,9.5,2.254054038176331,51.28861161062099,18.258559803703463,18.18163920854109,18.374176194925063,10.60860397191698,6.904773928245318,7.465767856288977,15.441023742602368,9.351521265249035,13.985982575080351
07_10,Raw Data\07_10\07_10_test_107.csv,,Integrated Beam Prototype 3,-0.046833 -0.046833 -0.046016 -0.046016 : 0.009751 0.009751 0.048646 0.048646 : 0.451608 0.451608 0.359203 0.359203,lo,89.0,15.0,0.0,0.0,25.0,0.0,9.5,2.254054038176331,51.28861161062099,14.44527401073119,17.951144096104816,19.634506155120352,7.820913399534321,5.3347794402982425,8.876862039617961,12.93169083125474,7.404217995696723,13.883929179007383
07_10,Raw Data\07_10\07_10_test_108.csv,,Integrated Beam Prototype 3,-0.046833 -0.046833 -0.046016 -0.046016 : 0.009751 0.009751 0.048646 0.048646 : 0.451608 0.451608 0.359203 0.359203,lo,89.0,15.0,0.0,0.0,25.0,0.0,9.5,2.254054038176331,51.28861161062099,14.717827043121783,16.318323791495366,25.414611007893544,10.335608542952508,8.205505457487487,8.235525639440024,21.17263032223777,7.088859570773844,12.513287951595943
07_10,Raw Data\07_10\07_10_test_109.csv,,Integrated Beam Prototype 3,-0.046833 -0.046833 -0.046016 -0.046016 : 0.009751 0.009751 0.048646 0.048646 : 0.451608 0.451608 0.359203 0.359203,lo,89.0,15.0,0.0,0.0,25.0,0.0,9.5,2.254054038176331,51.28861161062099,14.212293397809535,15.234448113956873,15.86150097600051,10.016598931951584,12.516401725105103,8.237067532457244,14.328395899719624,7.8197093404154066,8.935261184791896
07_10,Raw Data\07_10\07_10_test_110.csv,,Integrated Beam Prototype 3,-0.046833 -0.046833 -0.046016 -0.046016 : 0.009751 0.009751 0.048646 0.048646 : 0.451608 0.451608 0.359203 0.359203,lo,89.0,15.0,0.0,0.0,25.0,0.0,9.5,2.254054038176331,51.28861161062099,16.00944779710551,15.397915602422808,22.45005728092952,10.621841304235408,9.17132508321378,5.320258737389647,23.436726568895768,7.246045067899947,10.201593453948073
07_10,Raw Data\07_10\07_10_test_111.csv,,Integrated Beam Prototype 3,-0.046833 -0.046833 -0.046016 -0.046016 : 0.009751 0.009751 0.048646 0.048646 : 0.451608 0.451608 0.359203 0.359203,lo,89.0,15.0,0.0,0.0,25.0,0.0,9.5,2.254054038176331,51.28861161062099,16.26098169003723,16.599626096190086,15.7607396512978,10.269091734885254,7.3187959739774,10.191089008973243,20.327472769246125,7.182932641626449,13.461283816314475
07_10,Raw Data\07_10\07_10_test_112.csv,,Integrated Beam Prototype 3,-0.046833 -0.046833 -0.046016 -0.046016 : 0.009751 0.009751 0.048646 0.048646 : 0.451608 0.451608 0.359203 0.359203,lo,89.0,15.0,0.0,0.0,25.0,0.0,9.5,2.254054038176331,51.28861161062099,15.03371628553754,16.64912973277726,22.574670273697308,10.1040857850439,6.20330451153533,11.46889386029484,18.1023721334116,7.627373929925437,12.799401106816958
07_10,Raw Data\07_10\07_10_test_113.csv,,Integrated Beam Prototype 3,-0.046833 -0.046833 -0.046016 -0.046016 : 0.009751 0.009751 0.048646 0.048646 : 0.451608 0.451608 0.359203 0.359203,lo,89.0,15.0,0.0,0.0,25.0,0.0,9.5,2.254054038176331,51.28861161062099,14.741384908125733,17.83749171475815,16.724102884846154,10.444550122449153,8.490114041941798,9.038354647669069,23.57287657030104,10.71001448797152,10.974618254164833
07_10,Raw Data\07_10\07_10_test_114.csv,,Integrated Beam Prototype 3,-0.046833 -0.046833 -0.046016 -0.046016 : 0.009751 0.009751 0.048646 0.048646 : 0.451608 0.451608 0.359203 0.359203,lo,89.0,15.0,0.0,0.0,25.0,0.0,9.5,2.254054038176331,51.28861161062099,14.852499912462646,15.921153761334716,22.1468150380162,8.302834699097131,6.444206842837631,10.334652180305747,21.682291582454457,9.708364860969304,13.632286849041646
07_10,Raw Data\07_10\07_10_test_115.csv,,Integrated Beam Prototype 3,-0.046833 -0.046833 -0.046016 -0.046016 : 0.009751 0.009751 0.048646 0.048646 : 0.451608 0.451608 0.359203 0.359203,lo,89.0,15.0,0.0,0.0,25.0,0.0,9.5,2.254054038176331,51.28861161062099,17.79121791612019,14.43334128632088,22.269652196991867,9.97858203992765,5.602854033730356,4.816914613796765,21.44303667878489,9.83878367069989,11.410086941000106
07_10,Raw Data\07_10\07_10_test_116.csv,,Integrated Beam Prototype 3,-0.046833 -0.046833 -0.046016 -0.046016 : 0.009751 0.009751 0.048646 0.048646 : 0.451608 0.451608 0.359203 0.359203,med,89.0,15.0,0.0,0.0,25.0,0.0,9.0,2.620293872014538,81.04052945539165,24.171397420094184,22.949672918267883,22.364517178795925,27.97981082280113,29.31521664789144,27.608441880709503,25.45136536929597,27.92281788929561,23.92716343170301
07_10,Raw Data\07_10\07_10_test_117.csv,,Integrated Beam Prototype 3,-0.046833 -0.046833 -0.046016 -0.046016 : 0.009751 0.009751 0.048646 0.048646 : 0.451608 0.451608 0.359203 0.359203,med,89.0,15.0,0.0,0.0,25.0,0.0,9.0,2.620293872014538,81.04052945539165,22.453452905171726,18.405046591187883,19.69232062045233,30.858277298894613,27.33798360018629,27.496010004803463,23.634058669753333,29.652546889446945,24.78260603097955
07_10,Raw Data\07_10\07_10_test_118.csv,,Integrated Beam Prototype 3,-0.046833 -0.046833 -0.046016 -0.046016 : 0.009751 0.009751 0.048646 0.048646 : 0.451608 0.451608 0.359203 0.359203,med,89.0,15.0,0.0,0.0,25.0,0.0,9.0,2.620293872014538,81.04052945539165,21.71340656341239,22.79120508375958,21.17626546888163,26.075739562515537,26.3734455231732,28.05364416835925,26.052831767547364,26.27052648731404,23.15644815964811
07_10,Raw Data\07_10\07_10_test_119.csv,,Integrated Beam Prototype 3,-0.046833 -0.046833 -0.046016 -0.046016 : 0.009751 0.009751 0.048646 0.048646 : 0.451608 0.451608 0.359203 0.359203,med,89.0,15.0,0.0,0.0,25.0,0.0,9.0,2.620293872014538,81.04052945539165,24.50693940648023,19.24262592738452,21.023891203161863,26.44229046579082,25.06093724323752,23.739260881942347,22.10150129642238,23.34814111257082,18.225811443268363
07_10,Raw Data\07_10\07_10_test_120.csv,,Integrated Beam Prototype 3,-0.046833 -0.046833 -0.046016 -0.046016 : 0.009751 0.009751 0.048646 0.048646 : 0.451608 0.451608 0.359203 0.359203,med,89.0,15.0,0.0,0.0,25.0,0.0,9.0,2.620293872014538,81.04052945539165,24.836993881770294,23.08424744946484,20.14349921518066,27.025501012535106,25.739165215180805,26.345479404617336,25.87002705534859,21.61911358134656,20.838469522303708
07_10,Raw Data\07_10\07_10_test_121.csv,,Integrated Beam Prototype 3,-0.046833 -0.046833 -0.046016 -0.046016 : 0.009751 0.009751 0.048646 0.048646 : 0.451608 0.451608 0.359203 0.359203,med,89.0,15.0,0.0,0.0,25.0,0.0,9.0,2.620293872014538,81.04052945539165,18.306329468370368,23.333983210257884,21.86948403778943,23.72778603896214,22.439059657275703,23.899157946450348,17.362728529828985,24.47843825062029,20.57690504086981
07_10,Raw Data\07_10\07_10_test_122.csv,,Integrated Beam Prototype 3,-0.046833 -0.046833 -0.046016 -0.046016 : 0.009751 0.009751 0.048646 0.048646 : 0.451608 0.451608 0.359203 0.359203,med,89.0,15.0,0.0,0.0,25.0,0.0,9.0,2.620293872014538,81.04052945539165,20.08577216359404,25.077815531568035,24.816625670662408,26.678536760475986,25.107227147570143,27.040377806852263,22.673462282887385,25.3375710174462,22.353504909641625
07_10,Raw Data\07_10\07_10_test_123.csv,,Integrated Beam Prototype 3,-0.046833 -0.046833 -0.046016 -0.046016 : 0.009751 0.009751 0.048646 0.048646 : 0.451608 0.451608 0.359203 0.359203,med,89.0,15.0,0.0,0.0,25.0,0.0,9.0,2.620293872014538,81.04052945539165,21.11690607693433,22.12273780918041,22.505259081382643,25.796122774374822,23.275122008270024,25.042497948796544,25.11340871963821,25.759903312325235,23.114081518824328
07_10,Raw Data\07_10\07_10_test_124.csv,,Integrated Beam Prototype 3,-0.046833 -0.046833 -0.046016 -0.046016 : 0.009751 0.009751 0.048646 0.048646 : 0.451608 0.451608 0.359203 0.359203,med,89.0,15.0,0.0,0.0,25.0,0.0,9.0,2.620293872014538,81.04052945539165,23.39844729246739,19.79525547563445,22.03322408365826,24.113468461696822,23.9571573660874,27.575009970373248,24.212438610929407,24.32476292333926,23.81805346076313
07_10,Raw Data\07_10\07_10_test_125.csv,,Integrated Beam Prototype 3,-0.046833 -0.046833 -0.046016 -0.046016 : 0.009751 0.009751 0.048646 0.048646 : 0.451608 0.451608 0.359203 0.359203,med,89.0,15.0,0.0,0.0,25.0,0.0,9.0,2.620293872014538,81.04052945539165,20.612097754146507,20.6251072641486,22.278199649980323,26.60225795454283,25.17420839437158,25.405718772678227,25.572721544066024,28.20253215218621,20.332378388623912
07_10,Raw Data\07_10\07_10_test_126.csv,,Integrated Beam Prototype 3,-0.046833 -0.046833 -0.046016 -0.046016 : 0.009751 0.009751 0.048646 0.048646 : 0.451608 0.451608 0.359203 0.359203,med,89.0,15.0,0.0,0.0,25.0,0.0,9.0,2.620293872014538,81.04052945539165,20.368733985920063,21.07878945451177,23.84804217696671,27.13799425343732,27.23745888585717,27.83831986209747,27.218310013054708,22.976985149777047,25.38013595312896
07_10,Raw Data\07_10\07_10_test_127.csv,,Integrated Beam Prototype 3,-0.046833 -0.046833 -0.046016 -0.046016 : 0.009751 0.009751 0.048646 0.048646 : 0.451608 0.451608 0.359203 0.359203,med,89.0,15.0,0.0,0.0,25.0,0.0,9.0,2.620293872014538,81.04052945539165,23.42096930341297,24.38093628388602,18.79828651636986,27.80462533672569,26.97649082721212,24.891055178118656,24.65969692754929,24.558665009065724,20.372398246651564
07_10,Raw Data\07_10\07_10_test_128.csv,,Integrated Beam Prototype 3,-0.046833 -0.046833 -0.046016 -0.046016 : 0.009751 0.009751 0.048646 0.048646 : 0.451608 0.451608 0.359203 0.359203,med,89.0,15.0,0.0,0.0,25.0,0.0,9.0,2.620293872014538,81.04052945539165,21.82842031273806,22.05580966299564,20.76622382849207,24.2892309055639,23.126322073405422,25.656710104274364,27.80481304023701,29.68769637896392,21.13482748951831
07_10,Raw Data\07_10\07_10_test_129.csv,,Integrated Beam Prototype 3,-0.046833 -0.046833 -0.046016 -0.046016 : 0.009751 0.009751 0.048646 0.048646 : 0.451608 0.451608 0.359203 0.359203,med,89.0,15.0,0.0,0.0,25.0,0.0,9.0,2.620293872014538,81.04052945539165,22.734438270104047,22.129675260518184,21.647937200904977,27.287910433904376,26.10576058826511,26.18861937320853,23.58030303027219,23.857025147542128,22.269084209234578
07_10,Raw Data\07_10\07_10_test_130.csv,,Integrated Beam Prototype 3,-0.046833 -0.046833 -0.046016 -0.046016 : 0.009751 0.009751 0.048646 0.048646 : 0.451608 0.451608 0.359203 0.359203,med,89.0,15.0,0.0,0.0,25.0,0.0,9.0,2.620293872014538,81.04052945539165,22.43045284834486,22.60284254758602,22.48984795580365,24.9749998929075,22.08568607556261,24.97471370057205,25.41375475880432,24.973768634857564,23.836776466996955
07_10,Raw Data\07_10\07_10_test_131.csv,,Integrated Beam Prototype 3,-0.046833 -0.046833 -0.046016 -0.046016 : 0.009751 0.009751 0.048646 0.048646 : 0.451608 0.451608 0.359203 0.359203,hi,89.0,15.0,0.0,0.0,25.0,0.0,9.0,2.819811422029002,90.36149179202869,37.72087293337181,36.13226098141008,35.63498134013978,43.37179321283488,39.32295320265846,41.78288491629878,41.26011544982252,33.794720850127675,30.59287253159744
07_10,Raw Data\07_10\07_10_test_132.csv,,Integrated Beam Prototype 3,-0.046833 -0.046833 -0.046016 -0.046016 : 0.009751 0.009751 0.048646 0.048646 : 0.451608 0.451608 0.359203 0.359203,hi,89.0,15.0,0.0,0.0,25.0,0.0,9.0,2.819811422029002,90.36149179202869,37.94496978497944,35.854688059402534,37.2822193506357,43.7425297525537,40.172087916344665,45.728771046463095,41.21713218562612,35.23846959895019,38.53595334191407
07_10,Raw Data\07_10\07_10_test_133.csv,,Integrated Beam Prototype 3,-0.046833 -0.046833 -0.046016 -0.046016 : 0.009751 0.009751 0.048646 0.048646 : 0.451608 0.451608 0.359203 0.359203,hi,89.0,15.0,0.0,0.0,25.0,0.0,9.0,2.819811422029002,90.36149179202869,39.91147474436621,38.38542214125263,38.66065167567535,44.46865402635614,42.05250619613922,44.388214538113154,40.198664330207066,32.94764015851116,38.50612672326846
07_10,Raw Data\07_10\07_10_test_134.csv,,Integrated Beam Prototype 3,-0.046833 -0.046833 -0.046016 -0.046016 : 0.009751 0.009751 0.048646 0.048646 : 0.451608 0.451608 0.359203 0.359203,hi,89.0,15.0,0.0,0.0,25.0,0.0,9.0,2.819811422029002,90.36149179202869,42.63986356424476,34.94868048243587,44.06481854924153,36.35570638454213,41.79597674014828,45.09103180392228,40.47730618904709,31.02170436497845,38.50175303714947
07_10,Raw Data\07_10\07_10_test_135.csv,,Integrated Beam Prototype 3,-0.046833 -0.046833 -0.046016 -0.046016 : 0.009751 0.009751 0.048646 0.048646 : 0.451608 0.451608 0.359203 0.359203,hi,89.0,15.0,0.0,0.0,25.0,0.0,9.0,2.819811422029002,90.36149179202869,40.99913215111272,35.02349476937459,36.20467860591253,45.54563303423605,43.54801554651668,42.42415357086536,45.55173625821262,32.470331215006176,33.96138596880055
07_10,Raw Data\07_10\07_10_test_136.csv,,Integrated Beam Prototype 3,-0.046833 -0.046833 -0.046016 -0.046016 : 0.009751 0.009751 0.048646 0.048646 : 0.451608 0.451608 0.359203 0.359203,hi,89.0,15.0,0.0,0.0,25.0,0.0,9.0,2.819811422029002,90.36149179202869,39.97872452065521,37.5667581063824,38.29166713484934,40.37627977165392,41.80565257585401,42.60652873659903,38.993673488584,34.62411607334423,37.51930868747508
07_10,Raw Data\07_10\07_10_test_137.csv,,Integrated Beam Prototype 3,-0.046833 -0.046833 -0.046016 -0.046016 : 0.009751 0.009751 0.048646 0.048646 : 0.451608 0.451608 0.359203 0.359203,hi,89.0,15.0,0.0,0.0,25.0,0.0,9.0,2.819811422029002,90.36149179202869,39.74663845654998,35.05289782441652,37.1012386806967,46.762128034958906,45.063123426064536,44.15324527670979,42.122922509676464,36.00933489138745,36.12426126849158
07_10,Raw Data\07_10\07_10_test_138.csv,,Integrated Beam Prototype 3,-0.046833 -0.046833 -0.046016 -0.046016 : 0.009751 0.009751 0.048646 0.048646 : 0.451608 0.451608 0.359203 0.359203,hi,89.0,15.0,0.0,0.0,25.0,0.0,9.0,2.819811422029002,90.36149179202869,40.66743573084965,34.55675567848812,37.54052990793837,39.79950311482819,41.546055752289895,44.68438034047509,40.553646234894686,31.39738537314208,39.73726510533896
07_10,Raw Data\07_10\07_10_test_139.csv,,Integrated Beam Prototype 3,-0.046833 -0.046833 -0.046016 -0.046016 : 0.009751 0.009751 0.048646 0.048646 : 0.451608 0.451608 0.359203 0.359203,hi,89.0,15.0,0.0,0.0,25.0,0.0,9.0,2.819811422029002,90.36149179202869,40.22557859957768,32.59680362678124,37.08844136099107,42.046220319077726,43.44499041394573,42.05028035426789,45.27435248708879,34.9360291717515,35.691729149832604
07_10,Raw Data\07_10\07_10_test_140.csv,,Integrated Beam Prototype 3,-0.046833 -0.046833 -0.046016 -0.046016 : 0.009751 0.009751 0.048646 0.048646 : 0.451608 0.451608 0.359203 0.359203,hi,89.0,15.0,0.0,0.0,25.0,0.0,9.0,2.819811422029002,90.36149179202869,41.32950208616719,38.38037133102882,36.71295368706802,40.85264337135199,41.0558437209995,42.1380733092513,42.41081820726501,35.53328533001168,32.85965635596381
07_10,Raw Data\07_10\07_10_test_141.csv,,Integrated Beam Prototype 3,-0.046833 -0.046833 -0.046016 -0.046016 : 0.009751 0.009751 0.048646 0.048646 : 0.451608 0.451608 0.359203 0.359203,hi,89.0,15.0,0.0,0.0,25.0,0.0,9.0,2.819811422029002,90.36149179202869,34.16262972300839,37.46008117773349,38.20626754786001,44.07547526991858,43.8626671982972,38.56984305520015,43.9019460541626,36.442805194446,40.989338911111865
07_10,Raw Data\07_10\07_10_test_142.csv,,Integrated Beam Prototype 3,-0.046833 -0.046833 -0.046016 -0.046016 : 0.009751 0.009751 0.048646 0.048646 : 0.451608 0.451608 0.359203 0.359203,hi,89.0,15.0,0.0,0.0,25.0,0.0,9.0,2.819811422029002,90.36149179202869,37.95917253670392,37.94201378530432,36.5072034380736,44.84396451857412,45.566141250604176,43.767156076831824,37.64451577409687,32.12612485262973,37.68684059101738
07_10,Raw Data\07_10\07_10_test_143.csv,,Integrated Beam Prototype 3,-0.046833 -0.046833 -0.046016 -0.046016 : 0.009751 0.009751 0.048646 0.048646 : 0.451608 0.451608 0.359203 0.359203,hi,89.0,15.0,0.0,0.0,25.0,0.0,9.0,2.819811422029002,90.36149179202869,39.15772231453941,35.42660323186381,33.400094226989204,39.68759119109044,44.26429706467279,42.21064079167749,39.91077878717177,34.44300146150187,37.4294365148812
07_10,Raw Data\07_10\07_10_test_144.csv,,Integrated Beam Prototype 3,-0.046833 -0.046833 -0.046016 -0.046016 : 0.009751 0.009751 0.048646 0.048646 : 0.451608 0.451608 0.359203 0.359203,hi,89.0,15.0,0.0,0.0,25.0,0.0,9.0,2.819811422029002,90.36149179202869,36.30391774578198,34.52558399456897,36.44505918504734,36.74229163885772,40.27917558045954,46.253266476482125,41.88899566250869,37.0007667868399,38.184740134664445
07_10,Raw Data\07_10\07_10_test_145.csv,,Integrated Beam Prototype 3,-0.046833 -0.046833 -0.046016 -0.046016 : 0.009751 0.009751 0.048646 0.048646 : 0.451608 0.451608 0.359203 0.359203,hi,89.0,15.0,0.0,0.0,25.0,0.0,9.0,2.819811422029002,90.36149179202869,38.253208694836125,38.4464692631991,34.92827835509953,42.9191503010576,42.91144426895479,43.64620280890759,41.44820997487657,35.01754550116904,36.02770433455969
07_11,Raw Data\07_11\07_11_test_1.csv,,Integrated Beam Prototype 3,-0.046833 -0.046833 -0.046016 -0.046016 : 0.009751 0.009751 0.048646 0.048646 : 0.451608 0.451608 0.359203 0.359203,hi,89.0,15.0,0.0,0.0,25.0,0.0,9.0,2.819811422029002,90.36149179202869,40.23837870808785,39.16674108473645,41.46791602556036,45.95832669702497,44.32909959843626,46.3293936190939,40.371705678024576,34.46244544295867,38.71411797508984
07_11,Raw Data\07_11\07_11_test_2.csv,,Integrated Beam Prototype 3,-0.046833 -0.046833 -0.046016 -0.046016 : 0.009751 0.009751 0.048646 0.048646 : 0.451608 0.451608 0.359203 0.359203,hi,89.0,15.0,0.0,0.0,25.0,0.0,9.0,2.819811422029002,90.36149179202869,41.33984089769715,36.266596394076295,30.91889440058692,41.48363132733963,43.44165407152991,39.52412460634027,41.94227608507092,35.5106970213541,33.41584266593859
07_11,Raw Data\07_11\07_11_test_3.csv,,Integrated Beam Prototype 3,-0.046833 -0.046833 -0.046016 -0.046016 : 0.009751 0.009751 0.048646 0.048646 : 0.451608 0.451608 0.359203 0.359203,hi,89.0,15.0,0.0,0.0,25.0,0.0,9.0,2.819811422029002,90.36149179202869,41.064558737925495,32.652834630258894,35.89538710789106,42.11724256834209,42.21389068113251,43.81635107547834,41.24499354069648,35.302858326891794,40.27841382026904
07_11,Raw Data\07_11\07_11_test_4.csv,,Integrated Beam Prototype 3,-0.046833 -0.046833 -0.046016 -0.046016 : 0.009751 0.009751 0.048646 0.048646 : 0.451608 0.451608 0.359203 0.359203,hi,89.0,15.0,0.0,0.0,25.0,0.0,9.0,2.819811422029002,90.36149179202869,38.2116971761145,33.43489592506925,35.95422870523722,42.1102259448601,46.243224294286215,40.30455450380802,44.50291791219796,35.13817911749477,35.6406447135667
07_11,Raw Data\07_11\07_11_test_5.csv,,Integrated Beam Prototype 3,-0.046833 -0.046833 -0.046016 -0.046016 : 0.009751 0.009751 0.048646 0.048646 : 0.451608 0.451608 0.359203 0.359203,hi,89.0,15.0,0.0,0.0,25.0,0.0,9.0,2.819811422029002,90.36149179202869,40.48113647700908,34.461008537681266,36.71955284436499,39.28474165893707,39.67880034294836,47.13796977633353,44.47568877178877,34.54803327094039,38.57860551420716
07_11,Raw Data\07_11\07_11_test_6.csv,,Integrated Beam Prototype 3,-0.046833 -0.046833 -0.046016 -0.046016 : 0.009751 0.009751 0.048646 0.048646 : 0.451608 0.451608 0.359203 0.359203,hi,89.0,15.0,0.0,0.0,25.0,0.0,9.0,2.819811422029002,90.36149179202869,38.66541653489519,33.55090089515542,33.89609373285792,46.07358798360432,48.68708785426293,41.131798146887874,40.82067433519351,38.24970977809095,33.105072513577305
07_11,Raw Data\07_11\07_11_test_7.csv,,Integrated Beam Prototype 3,-0.046833 -0.046833 -0.046016 -0.046016 : 0.009751 0.009751 0.048646 0.048646 : 0.451608 0.451608 0.359203 0.359203,hi,89.0,15.0,0.0,0.0,25.0,0.0,9.0,2.819811422029002,90.36149179202869,40.38400246953882,35.985865198141354,38.761462788320365,44.48411007111035,40.71710901490413,48.82060541843581,41.19792677081952,28.666293973811594,41.3418288609477
07_11,Raw Data\07_11\07_11_test_8.csv,,Integrated Beam Prototype 3,-0.046833 -0.046833 -0.046016 -0.046016 : 0.009751 0.009751 0.048646 0.048646 : 0.451608 0.451608 0.359203 0.359203,hi,89.0,15.0,0.0,0.0,25.0,0.0,9.0,2.819811422029002,90.36149179202869,43.87605972388493,33.688360866300734,37.08513993082309,42.63546165864681,44.34576342884052,37.7712492514411,40.574689912149886,33.8336881675266,38.76903918708102
07_11,Raw Data\07_11\07_11_test_9.csv,,Integrated Beam Prototype 3,-0.046833 -0.046833 -0.046016 -0.046016 : 0.009751 0.009751 0.048646 0.048646 : 0.451608 0.451608 0.359203 0.359203,hi,89.0,15.0,0.0,0.0,25.0,0.0,9.0,2.819811422029002,90.36149179202869,39.36019695131994,34.56493754967172,35.298326624192505,43.21926365360399,41.30546347258932,44.2270765525795,39.8663664373321,39.37296010115397,37.86192165723855
07_11,Raw Data\07_11\07_11_test_10.csv,,Integrated Beam Prototype 3,-0.046833 -0.046833 -0.046016 -0.046016 : 0.009751 0.009751 0.048646 0.048646 : 0.451608 0.451608 0.359203 0.359203,hi,89.0,15.0,0.0,0.0,25.0,0.0,9.0,2.819811422029002,90.36149179202869,40.41533537005724,33.522144758350244,34.856965896765026,43.551719497281645,40.13414741428856,41.28374837912909,41.08640191652274,37.030849510354166,40.27714796656243
07_11,Raw Data\07_11\07_11_test_11.csv,,Integrated Beam Prototype 3,-0.046833 -0.046833 -0.046016 -0.046016 : 0.009751 0.009751 0.048646 0.048646 : 0.451608 0.451608 0.359203 0.359203,hi,89.0,15.0,0.0,0.0,25.0,0.0,9.0,2.819811422029002,90.36149179202869,38.45544773681034,34.57886101778722,38.624244154124455,40.37635518151599,41.24464879577398,41.649709918989,42.42602957834088,32.59847915899386,42.49087262015782
07_11,Raw Data\07_11\07_11_test_12.csv,,Integrated Beam Prototype 3,-0.046833 -0.046833 -0.046016 -0.046016 : 0.009751 0.009751 0.048646 0.048646 : 0.451608 0.451608 0.359203 0.359203,hi,89.0,15.0,0.0,0.0,25.0,0.0,9.0,2.819811422029002,90.36149179202869,40.66516719535366,35.57749780971,35.36612843715353,46.73735454402773,41.08898958626464,40.75458029260584,38.83768822995118,34.69493767068622,33.323810812691335
07_11,Raw Data\07_11\07_11_test_13.csv,,Integrated Beam Prototype 3,-0.046833 -0.046833 -0.046016 -0.046016 : 0.009751 0.009751 0.048646 0.048646 : 0.451608 0.451608 0.359203 0.359203,hi,89.0,15.0,0.0,0.0,25.0,0.0,9.0,2.819811422029002,90.36149179202869,42.457234192939474,35.84086456665232,38.58203821742577,42.28527749918509,44.08145449212609,43.5751811092113,39.1748258061631,34.88195642498908,36.28194436083135
07_11,Raw Data\07_11\07_11_test_14.csv,,Integrated Beam Prototype 3,-0.046833 -0.046833 -0.046016 -0.046016 : 0.009751 0.009751 0.048646 0.048646 : 0.451608 0.451608 0.359203 0.359203,hi,89.0,15.0,0.0,0.0,25.0,0.0,9.0,2.819811422029002,90.36149179202869,36.64993193748498,34.07754026717993,36.66644253786357,39.25536274561972,43.34742949030809,40.88910579463109,40.39642260846189,34.642289454495106,34.00931466362133
07_11,Raw Data\07_11\07_11_test_15.csv,,Integrated Beam Prototype 3,-0.046833 -0.046833 -0.046016 -0.046016 : 0.009751 0.009751 0.048646 0.048646 : 0.451608 0.451608 0.359203 0.359203,hi,89.0,15.0,0.0,0.0,25.0,0.0,9.0,2.819811422029002,90.36149179202869,40.192995798666935,31.674265249494432,36.843239717263536,40.66157906042792,39.50594756767976,45.42985487637876,37.48501562169217,31.822556816654068,40.33658411837612
07_11,Raw Data\07_11\07_11_test_16.csv,,Integrated Beam Prototype 3,-0.046833 -0.046833 -0.046016 -0.046016 : 0.009751 0.009751 0.048646 0.048646 : 0.451608 0.451608 0.359203 0.359203,med,89.0,15.0,0.0,0.0,25.0,0.0,9.0,2.620293872014538,81.04052945539165,23.495546236881736,25.48696980828777,25.11853780648092,26.308464779527107,26.63541514716223,26.257424377760568,25.238977420416383,26.156099831888977,25.35681415007445
07_11,Raw Data\07_11\07_11_test_17.csv,,Integrated Beam Prototype 3,-0.046833 -0.046833 -0.046016 -0.046016 : 0.009751 0.009751 0.048646 0.048646 : 0.451608 0.451608 0.359203 0.359203,med,89.0,15.0,0.0,0.0,25.0,0.0,9.0,2.620293872014538,81.04052945539165,26.236828230959823,21.152793989987,25.00410075806069,29.23127820808799,30.683065113389432,25.56961979277969,28.04200545720841,30.4806312310608,28.19938034942085
07_11,Raw Data\07_11\07_11_test_18.csv,,Integrated Beam Prototype 3,-0.046833 -0.046833 -0.046016 -0.046016 : 0.009751 0.009751 0.048646 0.048646 : 0.451608 0.451608 0.359203 0.359203,med,89.0,15.0,0.0,0.0,25.0,0.0,9.0,2.620293872014538,81.04052945539165,26.02086648924557,24.311687730685065,24.663542000146528,26.839783852487137,26.08866720541715,28.75916334812745,24.0798173491121,24.828890342514704,25.16497723590156
07_11,Raw Data\07_11\07_11_test_19.csv,,Integrated Beam Prototype 3,-0.046833 -0.046833 -0.046016 -0.046016 : 0.009751 0.009751 0.048646 0.048646 : 0.451608 0.451608 0.359203 0.359203,med,89.0,15.0,0.0,0.0,25.0,0.0,9.0,2.620293872014538,81.04052945539165,23.294251596017112,25.403043854633555,22.206286298172817,30.40476707329766,25.9483690250534,27.61354467967703,27.600667927652303,27.086816600556784,20.719716374994924
07_11,Raw Data\07_11\07_11_test_20.csv,,Integrated Beam Prototype 3,-0.046833 -0.046833 -0.046016 -0.046016 : 0.009751 0.009751 0.048646 0.048646 : 0.451608 0.451608 0.359203 0.359203,med,89.0,15.0,0.0,0.0,25.0,0.0,9.0,2.620293872014538,81.04052945539165,24.03032303904104,23.573420427691023,21.14577344913529,27.102961228605952,25.015018207653185,31.434133696680043,26.183563790937995,26.92152425927939,22.641266695135467
07_11,Raw Data\07_11\07_11_test_21.csv,,Integrated Beam Prototype 3,-0.046833 -0.046833 -0.046016 -0.046016 : 0.009751 0.009751 0.048646 0.048646 : 0.451608 0.451608 0.359203 0.359203,med,89.0,15.0,0.0,0.0,25.0,0.0,9.0,2.620293872014538,81.04052945539165,23.829487006685152,24.314829178190465,21.43733226906782,26.89336731032651,27.34909761370859,26.36102440262051,25.66513447670504,29.528784230537248,26.71525620736212
07_11,Raw Data\07_11\07_11_test_22.csv,,Integrated Beam Prototype 3,-0.046833 -0.046833 -0.046016 -0.046016 : 0.009751 0.009751 0.048646 0.048646 : 0.451608 0.451608 0.359203 0.359203,med,89.0,15.0,0.0,0.0,25.0,0.0,9.0,2.620293872014538,81.04052945539165,24.042093080771966,26.638840339659463,27.30509288515904,29.96811046494245,27.38776877738456,29.29189476875725,27.044561965650065,26.09428089891629,26.32703826826182
07_11,Raw Data\07_11\07_11_test_23.csv,,Integrated Beam Prototype 3,-0.046833 -0.046833 -0.046016 -0.046016 : 0.009751 0.009751 0.048646 0.048646 : 0.451608 0.451608 0.359203 0.359203,med,89.0,15.0,0.0,0.0,25.0,0.0,9.0,2.620293872014538,81.04052945539165,24.566148775906736,23.40497756656093,24.839282670750663,28.490688074053388,24.681683062033937,25.87627683667789,24.478964384446616,31.22119033054382,24.022658567812595
07_11,Raw Data\07_11\07_11_test_24.csv,,Integrated Beam Prototype 3,-0.046833 -0.046833 -0.046016 -0.046016 : 0.009751 0.009751 0.048646 0.048646 : 0.451608 0.451608 0.359203 0.359203,med,89.0,15.0,0.0,0.0,25.0,0.0,9.0,2.620293872014538,81.04052945539165,28.32544717548814,22.20043812173757,22.79022084935896,28.506892703396986,26.778962796180565,29.15580992481357,28.947223120190703,28.24517402228893,22.873968928950315
